ID,Date Reported,Calculated Received Date,Date Abated,Nearest Address,Square Feet Abated,Days to Abatement,Reporting Source,Year Reported,Month Reported,Day Reported,Calculated Received Year,Calculated Received Month,Calculated Received Day,Year Abated,Month Abated,Day Abated,Location,Latitude,Longitude
2449587,01/01/2022,01/03/2022,01/03/2022,"607 W Camino Cir, Mesa, AZ, 85201",3,0.2,Website (Public),2022,Jan,01,2022,Jan,03,2022,Jan,03,POINT (-111.844 33.4242),33.424202,-111.8442348
2449414,01/01/2022,01/03/2022,01/03/2022,"4148 E Pueblo Ave, Mesa, AZ, 85206",2,0.2,Website (Public),2022,Jan,01,2022,Jan,03,2022,Jan,03,POINT (-111.742 33.4006),33.4006284,-111.7415088
2449775,01/02/2022,01/03/2022,01/03/2022,"2536 S Terrell, Mesa, AZ, 85209",3,0.3,Website (Public),2022,Jan,02,2022,Jan,03,2022,Jan,03,POINT (-111.649 33.3696),33.3695671,-111.6486964
2449823,01/02/2022,01/03/2022,01/03/2022,"Rio Salado Pathway, Mesa, AZ, 85256",10,0.4,Self Reported (City Staff),2022,Jan,02,2022,Jan,03,2022,Jan,03,POINT (-111.886 33.4361),33.436108,-111.8863739
2449830,01/02/2022,01/03/2022,01/03/2022,"Rio Salado Pathway, Mesa, AZ, 85256",16,0.4,Self Reported (City Staff),2022,Jan,02,2022,Jan,03,2022,Jan,03,POINT (-111.889 33.4365),33.4364662,-111.889037
2449849,01/02/2022,01/03/2022,01/03/2022,"2206 W Pampa Ave, Mesa, AZ, 85202",40,0.4,Website (Public),2022,Jan,02,2022,Jan,03,2022,Jan,03,POINT (-111.88 33.3594),33.3594192,-111.8803158
2452135,01/03/2022,01/04/2022,01/04/2022,"2254 W Main St, Mesa, AZ, 85201",4,0.2,Phone/Email (Public),2022,Jan,03,2022,Jan,04,2022,Jan,04,POINT (-111.881 33.4155),33.415455,-111.880737
2454006,01/04/2022,01/05/2022,01/04/2022,"2723 E 1st St, Mesa, AZ, 85213",60,0.0,Self Reported (City Staff),2022,Jan,04,2022,Jan,05,2022,Jan,04,POINT (-111.772 33.4171),33.4170521,-111.7723378
2452640,01/04/2022,01/05/2022,01/04/2022,"7678 E Baseline Rd, Mesa, AZ, 85209",12,0.0,Self Reported (City Staff),2022,Jan,04,2022,Jan,05,2022,Jan,04,POINT (-111.666 33.3793),33.3793389,-111.6662391
2453452,01/04/2022,01/05/2022,01/04/2022,"822 S Alma School Rd, Mesa, AZ, 85210",1,0.0,Self Reported (City Staff),2022,Jan,04,2022,Jan,05,2022,Jan,04,POINT (-111.857 33.3999),33.3998887,-111.8570599
2453367,01/04/2022,01/05/2022,01/04/2022,"Alma Gdns, Mesa, AZ, 85210",6,0.0,Self Reported (City Staff),2022,Jan,04,2022,Jan,05,2022,Jan,04,POINT (-111.857 33.4051),33.4051452,-111.8568915
2453083,01/04/2022,01/05/2022,01/04/2022,"2271 W Main St, Mesa, AZ, 85201",6,0.0,Self Reported (City Staff),2022,Jan,04,2022,Jan,05,2022,Jan,04,POINT (-111.881 33.4146),33.4146156,-111.8809812
2452695,01/04/2022,01/05/2022,01/04/2022,"533 W Guadalupe Rd, Mesa, AZ, 85210",25,0.0,Phone/Email (Public),2022,Jan,04,2022,Jan,05,2022,Jan,04,POINT (-111.846 33.363),33.363043,-111.845685
2454003,01/04/2022,01/05/2022,01/04/2022,"2788 E 1st St, Mesa, AZ, 85213",2,0.0,Self Reported (City Staff),2022,Jan,04,2022,Jan,05,2022,Jan,04,POINT (-111.772 33.4172),33.4172178,-111.7723668
2453420,01/04/2022,01/05/2022,01/04/2022,"1216 W 6th Dr, Mesa, AZ, 85202",3,0.0,Self Reported (City Staff),2022,Jan,04,2022,Jan,05,2022,Jan,04,POINT (-111.857 33.4032),33.4031685,-111.85692
2453393,01/04/2022,01/05/2022,01/04/2022,"544 S Alma School Rd, Mesa, AZ, 85210",3,0.0,Self Reported (City Staff),2022,Jan,04,2022,Jan,05,2022,Jan,04,POINT (-111.857 33.4045),33.4044567,-111.856903
2453086,01/04/2022,01/05/2022,01/04/2022,"2273 W Main St, Mesa, AZ, 85201",4,0.0,Self Reported (City Staff),2022,Jan,04,2022,Jan,05,2022,Jan,04,POINT (-111.881 33.4146),33.4145878,-111.8810079
2454000,01/04/2022,01/05/2022,01/04/2022,"2788 E 1st St, Mesa, AZ, 85213",30,0.0,Self Reported (City Staff),2022,Jan,04,2022,Jan,05,2022,Jan,04,POINT (-111.772 33.4172),33.4172265,-111.7723691
2452668,01/04/2022,01/05/2022,01/04/2022,"1130 S Sossaman Rd, Mesa, AZ, 85208",2,0.0,Self Reported (City Staff),2022,Jan,04,2022,Jan,05,2022,Jan,04,POINT (-111.668 33.3945),33.394481,-111.667693
2453089,01/04/2022,01/05/2022,01/04/2022,"2273 W Main St, Mesa, AZ, 85201",4,0.0,Self Reported (City Staff),2022,Jan,04,2022,Jan,05,2022,Jan,04,POINT (-111.881 33.4146),33.4146374,-111.880991
2453397,01/04/2022,01/05/2022,01/04/2022,"546 S Alma School Rd, Mesa, AZ, 85210",4,0.0,Self Reported (City Staff),2022,Jan,04,2022,Jan,05,2022,Jan,04,POINT (-111.857 33.4044),33.4044037,-111.8569172
2452644,01/04/2022,01/05/2022,01/04/2022,"7680 E Baseline Rd, Mesa, AZ, 85209",1,0.0,Self Reported (City Staff),2022,Jan,04,2022,Jan,05,2022,Jan,04,POINT (-111.666 33.3794),33.3793746,-111.6662056
2452893,01/04/2022,01/05/2022,01/04/2022,"Woodglen Square Condominiums, Mesa, AZ, 85210",9,0.0,Self Reported (City Staff),2022,Jan,04,2022,Jan,05,2022,Jan,04,POINT (-111.845 33.3627),33.3626733,-111.8445214
2453240,01/04/2022,01/05/2022,01/04/2022,"2257 N Winthrop Cir, Mesa, AZ, 85213",8,0.0,Self Reported (City Staff),2022,Jan,04,2022,Jan,05,2022,Jan,04,POINT (-111.771 33.4569),33.4568944,-111.7708069
2456476,01/05/2022,01/06/2022,01/05/2022,"1025 S Drew St, Mesa, AZ, 85210",90,0.0,Self Reported (City Staff),2022,Jan,05,2022,Jan,06,2022,Jan,05,POINT (-111.832 33.3963),33.396306,-111.8317475
2454844,01/05/2022,01/06/2022,01/05/2022,"7569 E Guadalupe Rd, Mesa, AZ, 85212",1,0.0,Self Reported (City Staff),2022,Jan,05,2022,Jan,06,2022,Jan,05,POINT (-111.671 33.3649),33.3649268,-111.671007
2455477,01/05/2022,01/06/2022,01/05/2022,"233 E Main St, Mesa, AZ, 85201",6,0.0,Self Reported (City Staff),2022,Jan,05,2022,Jan,06,2022,Jan,05,POINT (-111.825 33.4139),33.4139237,-111.8248538
2454847,01/05/2022,01/06/2022,01/05/2022,"7580 E Guadalupe Rd, Mesa, AZ, 85212",1,0.0,Self Reported (City Staff),2022,Jan,05,2022,Jan,06,2022,Jan,05,POINT (-111.671 33.365),33.364988,-111.6712732
2455437,01/05/2022,01/06/2022,01/05/2022,"233 E Main St, Mesa, AZ, 85201",10,0.0,Self Reported (City Staff),2022,Jan,05,2022,Jan,06,2022,Jan,05,POINT (-111.825 33.4138),33.4137924,-111.8247609
2455852,01/05/2022,01/06/2022,01/05/2022,"8622 E Ocaso Ave, Mesa, AZ, 85212",2,0.0,Self Reported (City Staff),2022,Jan,05,2022,Jan,06,2022,Jan,05,POINT (-111.648 33.3619),33.3618965,-111.6479323
2455231,01/05/2022,01/06/2022,01/05/2022,"1021 W Main St, Mesa, AZ, 85201",1,0.0,Self Reported (City Staff),2022,Jan,05,2022,Jan,06,2022,Jan,05,POINT (-111.853 33.4147),33.4147421,-111.8532112
2456474,01/05/2022,01/06/2022,01/05/2022,"1025 S Drew St, Mesa, AZ, 85210",90,0.0,Self Reported (City Staff),2022,Jan,05,2022,Jan,06,2022,Jan,05,POINT (-111.832 33.3963),33.396293,-111.831852
2454978,01/05/2022,01/06/2022,01/05/2022,"1840 W 8th Ave Mesa, AZ, 85202",1,0.0,Self Reported (City Staff),2022,Jan,05,2022,Jan,06,2022,Jan,05,POINT (-111.871 33.4004),33.400356,-111.8710658
2455427,01/05/2022,01/06/2022,01/05/2022,"59 S Hibbert, Mesa, AZ, 85210",60,0.0,Self Reported (City Staff),2022,Jan,05,2022,Jan,06,2022,Jan,05,POINT (-111.826 33.4137),33.4136853,-111.8257235
2455469,01/05/2022,01/06/2022,01/05/2022,"233 E Main St, Mesa, AZ, 85201",60,0.0,Self Reported (City Staff),2022,Jan,05,2022,Jan,06,2022,Jan,05,POINT (-111.825 33.4139),33.4138847,-111.8248186
2455866,01/05/2022,01/06/2022,01/05/2022,"8617 E Ocaso Ave, Mesa, AZ, 85212",1,0.0,Self Reported (City Staff),2022,Jan,05,2022,Jan,06,2022,Jan,05,POINT (-111.648 33.3615),33.3614811,-111.6482613
2455526,01/05/2022,01/06/2022,01/05/2022,"8636 E Onza Cir, Mesa, AZ, 85212",2,0.0,Mobile App (Public),2022,Jan,05,2022,Jan,06,2022,Jan,05,POINT (-111.648 33.3627),33.3627017,-111.6475095
2454976,01/05/2022,01/06/2022,01/05/2022,"1831 W 8th Ave, Mesa, AZ, 85202",1,0.0,Self Reported (City Staff),2022,Jan,05,2022,Jan,06,2022,Jan,05,POINT (-111.871 33.4004),33.4003839,-111.8711421
2455292,01/05/2022,01/06/2022,01/05/2022,"52 S Mesa Dr, Mesa, AZ, 85210",1,0.0,Self Reported (City Staff),2022,Jan,05,2022,Jan,06,2022,Jan,05,POINT (-111.824 33.4135),33.4135324,-111.823688
2455398,01/05/2022,01/06/2022,01/05/2022,"59 S Hibbert, Mesa, AZ, 85210",6,0.0,Self Reported (City Staff),2022,Jan,05,2022,Jan,06,2022,Jan,05,POINT (-111.826 33.4137),33.4136928,-111.8256952
2455195,01/05/2022,01/06/2022,01/05/2022,"233 E Main St, Mesa, AZ, 85201",60,0.0,Mobile App (Public),2022,Jan,05,2022,Jan,06,2022,Jan,05,POINT (-111.825 33.414),33.4140035,-111.8245245
2455447,01/05/2022,01/06/2022,01/05/2022,"233 E Main St, Mesa, AZ, 85201",6,0.0,Self Reported (City Staff),2022,Jan,05,2022,Jan,06,2022,Jan,05,POINT (-111.825 33.4139),33.4138919,-111.8249143
2455383,01/05/2022,01/06/2022,01/05/2022,"59 S Hibbert, Mesa, AZ, 85210",12,0.0,Self Reported (City Staff),2022,Jan,05,2022,Jan,06,2022,Jan,05,POINT (-111.826 33.4136),33.4136414,-111.8256498
2455880,01/05/2022,01/06/2022,01/05/2022,"8558 E Portobello Cir, Mesa, AZ, 85212",8,0.0,Self Reported (City Staff),2022,Jan,05,2022,Jan,06,2022,Jan,05,POINT (-111.649 33.361),33.3610146,-111.6485848
2455520,01/05/2022,01/06/2022,01/05/2022,"4224 E Southern Ave, Mesa, AZ, 85206",120,0.0,Website (Public),2022,Jan,05,2022,Jan,06,2022,Jan,05,POINT (-111.74 33.3939),33.39388,-111.7399414
2455438,01/05/2022,01/06/2022,01/05/2022,"233 E Main St, Mesa, AZ, 85201",4,0.0,Self Reported (City Staff),2022,Jan,05,2022,Jan,06,2022,Jan,05,POINT (-111.825 33.4139),33.4139233,-111.824809
2456481,01/05/2022,01/06/2022,01/05/2022,"1025 S Drew St, Mesa, AZ, 85210",8,0.0,Self Reported (City Staff),2022,Jan,05,2022,Jan,06,2022,Jan,05,POINT (-111.832 33.3964),33.3963924,-111.8317735
2455227,01/05/2022,01/06/2022,01/05/2022,"1021 W Main St, Mesa, AZ, 85201",2,0.0,Self Reported (City Staff),2022,Jan,05,2022,Jan,06,2022,Jan,05,POINT (-111.853 33.4148),33.4147955,-111.8532836
2454840,01/05/2022,01/06/2022,01/05/2022,"2784 S Sossaman Rd, Mesa, AZ, 85209",6,0.0,Self Reported (City Staff),2022,Jan,05,2022,Jan,06,2022,Jan,05,POINT (-111.671 33.3651),33.3651134,-111.6708088
2457059,01/06/2022,01/10/2022,01/06/2022,"650 E Brown Rd-Alley, Mesa, AZ, 85203",20,0.0,Mobile App (Public),2022,Jan,06,2022,Jan,10,2022,Jan,06,POINT (-111.816 33.4372),33.4372403,-111.8163046
2457358,01/06/2022,01/10/2022,01/06/2022,"Moorings at Mesa Cove, Mesa, AZ, 85203",1,0.0,Self Reported (City Staff),2022,Jan,06,2022,Jan,10,2022,Jan,06,POINT (-111.818 33.437),33.4369623,-111.8178991
2457296,01/06/2022,01/10/2022,01/06/2022,"8558 E Navarro Ave, Mesa, AZ, 85209",0,0.0,Website (Public),2022,Jan,06,2022,Jan,10,2022,Jan,06,POINT (-111.649 33.3663),33.3663414,-111.6492033
2458807,01/06/2022,01/10/2022,01/10/2022,"AZ-101-LOOP N, Mesa, AZ, 85201",40,0.1,Self Reported (City Staff),2022,Jan,06,2022,Jan,10,2022,Jan,10,POINT (-111.891 33.4363),33.4363011,-111.8909563
2457831,01/06/2022,01/10/2022,01/06/2022,"144 S Mesa Dr, Mesa, AZ, 85210",6,0.0,Self Reported (City Staff),2022,Jan,06,2022,Jan,10,2022,Jan,06,POINT (-111.824 33.4113),33.4113243,-111.8236367
2457610,01/06/2022,01/10/2022,01/06/2022,"Mesa, AZ, 85213",1,0.0,Self Reported (City Staff),2022,Jan,06,2022,Jan,10,2022,Jan,06,POINT (-111.786 33.4176),33.4176277,-111.7860895
2457356,01/06/2022,01/10/2022,01/06/2022,"Moorings at Mesa Cove, Mesa, AZ, 85203",1,0.0,Self Reported (City Staff),2022,Jan,06,2022,Jan,10,2022,Jan,06,POINT (-111.817 33.437),33.4369563,-111.8173526
2458839,01/06/2022,01/10/2022,01/10/2022,"AZ-202-LOOP E, Mesa, AZ, 85201",60,0.2,Self Reported (City Staff),2022,Jan,06,2022,Jan,10,2022,Jan,10,POINT (-111.867 33.4385),33.4384645,-111.8669536
2457515,01/06/2022,01/10/2022,01/06/2022,"1055 N Wedgewood Dr, Mesa, AZ, 85203",1,0.0,Self Reported (City Staff),2022,Jan,06,2022,Jan,10,2022,Jan,06,POINT (-111.817 33.4346),33.4346454,-111.8166926
2458835,01/06/2022,01/10/2022,01/10/2022,"AZ-202-LOOP W, Mesa, AZ, 85201",60,0.2,Self Reported (City Staff),2022,Jan,06,2022,Jan,10,2022,Jan,10,POINT (-111.874 33.4368),33.4367675,-111.8741985
2456930,01/06/2022,01/10/2022,01/06/2022,"1113 S Signal Butte Rd, Mesa, AZ, 85208",8,0.0,Website (Public),2022,Jan,06,2022,Jan,10,2022,Jan,06,POINT (-111.598 33.3949),33.3949115,-111.5979463
2458812,01/06/2022,01/10/2022,01/10/2022,"AZ-101-LOOP S, Mesa, AZ, 85201",50,0.2,Self Reported (City Staff),2022,Jan,06,2022,Jan,10,2022,Jan,10,POINT (-111.891 33.4363),33.4362651,-111.8910029
2457637,01/06/2022,01/10/2022,01/06/2022,"Mesa, AZ, 85203",1,0.0,Self Reported (City Staff),2022,Jan,06,2022,Jan,10,2022,Jan,06,POINT (-111.786 33.4171),33.4171109,-111.7857435
2457826,01/06/2022,01/10/2022,01/06/2022,"171 S Pomeroy, Mesa, AZ, 85210",6,0.0,Self Reported (City Staff),2022,Jan,06,2022,Jan,10,2022,Jan,06,POINT (-111.824 33.4113),33.4112691,-111.8237058
2457581,01/06/2022,01/10/2022,01/06/2022,"Mesa, AZ, 85213",1,0.0,Self Reported (City Staff),2022,Jan,06,2022,Jan,10,2022,Jan,06,POINT (-111.787 33.4181),33.418057,-111.7865938
2457812,01/06/2022,01/10/2022,01/06/2022,"144 S Mesa Dr, Mesa, AZ, 85210",12,0.0,Self Reported (City Staff),2022,Jan,06,2022,Jan,10,2022,Jan,06,POINT (-111.824 33.4113),33.4112913,-111.8236196
2457667,01/06/2022,01/10/2022,01/06/2022,"Ambassador Downs, Mesa, AZ, 85204",1,0.0,Self Reported (City Staff),2022,Jan,06,2022,Jan,10,2022,Jan,06,POINT (-111.781 33.412),33.412001,-111.7807468
2458819,01/06/2022,01/10/2022,01/10/2022,"AZ-101-LOOP S, Mesa, AZ, 85201",20,0.1,Self Reported (City Staff),2022,Jan,06,2022,Jan,10,2022,Jan,10,POINT (-111.891 33.4363),33.4362719,-111.8910056
2457072,01/06/2022,01/10/2022,01/06/2022,"1045 N Wedgewood Dr, Mesa, AZ, 85203",120,0.0,Mobile App (Public),2022,Jan,06,2022,Jan,10,2022,Jan,06,POINT (-111.817 33.434),33.4340376,-111.8173134
2458841,01/06/2022,01/10/2022,01/10/2022,"1061 N Dobson Rd, Mesa, AZ, 85201",20,0.2,Self Reported (City Staff),2022,Jan,06,2022,Jan,10,2022,Jan,10,POINT (-111.866 33.4376),33.4376112,-111.8656214
2458829,01/06/2022,01/10/2022,01/10/2022,"AZ-202-LOOP W, Mesa, AZ, 85201",4,0.2,Self Reported (City Staff),2022,Jan,06,2022,Jan,10,2022,Jan,10,POINT (-111.878 33.4363),33.43628,-111.8781726
2457604,01/06/2022,01/10/2022,01/06/2022,"Mesa, AZ, 85203",1,0.0,Self Reported (City Staff),2022,Jan,06,2022,Jan,10,2022,Jan,06,POINT (-111.786 33.4176),33.4176141,-111.7862414
2459443,01/07/2022,01/10/2022,01/10/2022,"3464 E University Dr, Mesa, AZ, 85213",60,0.3,Self Reported (City Staff),2022,Jan,07,2022,Jan,10,2022,Jan,10,POINT (-111.757 33.4231),33.4231241,-111.7569828
2460808,01/07/2022,01/10/2022,01/10/2022,"176 W Main St-Alley, Mesa, AZ, 85210",60,0.2,Mobile App (Public),2022,Jan,07,2022,Jan,10,2022,Jan,10,POINT (-111.835 33.4145),33.4144748,-111.8350864
2460914,01/08/2022,01/10/2022,01/10/2022,"241 E 1st Ave, Mesa, AZ, 85210",30,0.3,Mobile App (Public),2022,Jan,08,2022,Jan,10,2022,Jan,10,POINT (-111.825 33.4127),33.4126573,-111.8250335
2461726,01/09/2022,01/10/2022,01/10/2022,"4815 E Elmwood St, Mesa, AZ, 85205",0,0.0,Website (Public),2022,Jan,09,2022,Jan,10,2022,Jan,10,POINT (-111.727 33.433),33.4329814,-111.7271563
2462708,01/10/2022,01/11/2022,01/10/2022,"1061 N Dobson Rd, Mesa, AZ, 85201",60,0.0,Self Reported (City Staff),2022,Jan,10,2022,Jan,11,2022,Jan,10,POINT (-111.866 33.4372),33.4372351,-111.8656923
2462441,01/10/2022,01/11/2022,01/10/2022,"AZ-202-LOOP W, Mesa, AZ, 85201",1,0.0,Self Reported (City Staff),2022,Jan,10,2022,Jan,11,2022,Jan,10,POINT (-111.877 33.4362),33.436168,-111.8774358
2462179,01/10/2022,01/11/2022,01/10/2022,0,20,0.0,Self Reported (City Staff),2022,Jan,10,2022,Jan,11,2022,Jan,10,POINT (-111.889 33.4337),33.4336968,-111.8891008
2462959,01/10/2022,01/11/2022,01/11/2022,"217 S Sirrine, Mesa, AZ, 85210",2,0.2,Phone/Email (Public),2022,Jan,10,2022,Jan,11,2022,Jan,11,POINT (-111.829 33.41),33.409989,-111.828547
2462801,01/10/2022,01/11/2022,01/10/2022,"18 S Macdonald, Mesa, AZ, 85210",30,0.0,Self Reported (City Staff),2022,Jan,10,2022,Jan,11,2022,Jan,10,POINT (-111.835 33.4142),33.4142383,-111.8349501
2462397,01/10/2022,01/11/2022,01/10/2022,"AZ-101-LOOP S, Mesa, AZ, 85201",50,0.0,Self Reported (City Staff),2022,Jan,10,2022,Jan,11,2022,Jan,10,POINT (-111.891 33.4348),33.4348301,-111.8909149
2462963,01/10/2022,01/11/2022,01/10/2022,"140 S Pomeroy, Mesa, AZ, 85210",10,0.0,Self Reported (City Staff),2022,Jan,10,2022,Jan,11,2022,Jan,10,POINT (-111.824 33.4118),33.4117525,-111.8238256
2462159,01/10/2022,01/11/2022,01/10/2022,"AZ-202-LOOP E, Mesa, AZ, 85201",60,0.0,Self Reported (City Staff),2022,Jan,10,2022,Jan,11,2022,Jan,10,POINT (-111.89 33.4337),33.4337493,-111.8900152
2462632,01/10/2022,01/11/2022,01/10/2022,"1061 N Dobson Rd, Mesa, AZ, 85201",3,0.0,Self Reported (City Staff),2022,Jan,10,2022,Jan,11,2022,Jan,10,POINT (-111.866 33.4378),33.4378058,-111.8657128
2462106,01/10/2022,01/11/2022,01/10/2022,0,6,0.0,Self Reported (City Staff),2022,Jan,10,2022,Jan,11,2022,Jan,10,POINT (-111.889 33.4336),33.4335757,-111.8889596
2462833,01/10/2022,01/11/2022,01/10/2022,"210 S Mesa Dr, Mesa, AZ, 85210",60,0.0,Mobile App (Public),2022,Jan,10,2022,Jan,11,2022,Jan,10,POINT (-111.823 33.4105),33.4104708,-111.8234918
2463285,01/10/2022,01/11/2022,01/11/2022,"10238 E Olla Ave, Mesa, AZ, 85212",10,0.2,Website (Public),2022,Jan,10,2022,Jan,11,2022,Jan,11,POINT (-111.613 33.3643),33.3643298,-111.6129398
2462116,01/10/2022,01/11/2022,01/10/2022,"AZ-202-LOOP E, Mesa, AZ, 85201",30,0.0,Self Reported (City Staff),2022,Jan,10,2022,Jan,11,2022,Jan,10,POINT (-111.891 33.4339),33.4339255,-111.8908904
2462364,01/10/2022,01/11/2022,01/10/2022,"4806 E Elmwood St, Mesa, AZ, 85205",40,0.0,Website (Public),2022,Jan,10,2022,Jan,11,2022,Jan,10,POINT (-111.727 33.4334),33.4334246,-111.7274541
2462150,01/10/2022,01/11/2022,01/10/2022,"AZ-202-LOOP E, Mesa, AZ, 85201",40,0.0,Self Reported (City Staff),2022,Jan,10,2022,Jan,11,2022,Jan,10,POINT (-111.889 33.4335),33.433542,-111.8887774
2462913,01/10/2022,01/11/2022,01/10/2022,"229 E 1st Ave, Mesa, AZ, 85210",60,0.0,Self Reported (City Staff),2022,Jan,10,2022,Jan,11,2022,Jan,10,POINT (-111.825 33.4128),33.4127508,-111.8251496
2462297,01/10/2022,01/11/2022,01/11/2022,"401 W Southern Ave, Mesa, AZ, 85210",1,0.3,Phone/Email (Public),2022,Jan,10,2022,Jan,11,2022,Jan,11,POINT (-111.84 33.3932),33.39323,-111.8401899
2465680,01/11/2022,01/12/2022,01/11/2022,"1235 N Center St, Mesa, AZ, 85201",1,0.0,Self Reported (City Staff),2022,Jan,11,2022,Jan,12,2022,Jan,11,POINT (-111.827 33.4368),33.4368099,-111.8268217
2465195,01/11/2022,01/12/2022,01/11/2022,"427 W Southern Ave, Mesa, AZ, 85210",1,0.0,Self Reported (City Staff),2022,Jan,11,2022,Jan,12,2022,Jan,11,POINT (-111.841 33.3932),33.3932192,-111.840932
2464910,01/11/2022,01/12/2022,01/11/2022,"10238 E Olla Ave, Mesa, AZ, 85212",10,0.0,Self Reported (City Staff),2022,Jan,11,2022,Jan,12,2022,Jan,11,POINT (-111.613 33.3644),33.3643546,-111.6129214
2465215,01/11/2022,01/12/2022,01/11/2022,"Mesa, AZ, 85210",10,0.0,Mobile App (Public),2022,Jan,11,2022,Jan,12,2022,Jan,11,POINT (-111.829 33.4138),33.4137624,-111.8292265
2465548,01/11/2022,01/12/2022,01/11/2022,"266 E 2nd Ave, Mesa, AZ, 85210",1,0.0,Self Reported (City Staff),2022,Jan,11,2022,Jan,12,2022,Jan,11,POINT (-111.824 33.4108),33.4107561,-111.8238622
2465191,01/11/2022,01/12/2022,01/11/2022,"403 W Southern Ave, Mesa, AZ, 85210",1,0.0,Self Reported (City Staff),2022,Jan,11,2022,Jan,12,2022,Jan,11,POINT (-111.84 33.3932),33.3932099,-111.8402242
2464845,01/11/2022,01/12/2022,01/12/2022,"130 S Mesa Dr, Mesa, AZ, 85210",15,0.1,Mobile App (Public),2022,Jan,11,2022,Jan,12,2022,Jan,12,POINT (-111.824 33.4118),33.4117874,-111.8235526
2465717,01/11/2022,01/12/2022,01/11/2022,"1201 N Freestone, Mesa, AZ, 85203",1,0.0,Self Reported (City Staff),2022,Jan,11,2022,Jan,12,2022,Jan,11,POINT (-111.811 33.4369),33.4368655,-111.811379
2465581,01/11/2022,01/12/2022,01/11/2022,"148 W 3rd Ave, Mesa, AZ, 85210",6,0.0,Self Reported (City Staff),2022,Jan,11,2022,Jan,12,2022,Jan,11,POINT (-111.836 33.409),33.4089581,-111.8355542
2465188,01/11/2022,01/12/2022,01/11/2022,"1210 S Country Club Dr, Mesa, AZ, 85210",1,0.0,Self Reported (City Staff),2022,Jan,11,2022,Jan,12,2022,Jan,11,POINT (-111.84 33.3931),33.3931252,-111.8402827
2464420,01/11/2022,01/12/2022,01/11/2022,"7427 E Hampton Ave, Mesa, AZ, 85209",10,0.0,Mobile App (Public),2022,Jan,11,2022,Jan,12,2022,Jan,11,POINT (-111.673 33.3898),33.389784,-111.672622
2465728,01/11/2022,01/12/2022,01/11/2022,"1206 N Miller Cir, Mesa, AZ, 85203",1,0.0,Self Reported (City Staff),2022,Jan,11,2022,Jan,12,2022,Jan,11,POINT (-111.809 33.4368),33.4368187,-111.8094795
2465584,01/11/2022,01/12/2022,01/11/2022,"160 W 3rd Ave, Mesa, AZ, 85210",6,0.0,Self Reported (City Staff),2022,Jan,11,2022,Jan,12,2022,Jan,11,POINT (-111.836 33.4089),33.4089323,-111.8359223
2466054,01/11/2022,01/12/2022,01/12/2022,"702 W 1st Pl, Mesa, AZ, 85201",30,0.1,Phone/Email (Public),2022,Jan,11,2022,Jan,12,2022,Jan,12,POINT (-111.846 33.4184),33.418418,-111.846279
2465182,01/11/2022,01/12/2022,01/11/2022,"W Southern Ave, Mesa, AZ, 85210",1,0.0,Self Reported (City Staff),2022,Jan,11,2022,Jan,12,2022,Jan,11,POINT (-111.84 33.3933),33.3932536,-111.840248
2468177,01/12/2022,01/13/2022,01/13/2022,"1255 S Country Club Dr, Mesa, AZ, 85210",6,0.1,Phone/Email (Public),2022,Jan,12,2022,Jan,13,2022,Jan,13,POINT (-111.839 33.3917),33.391672,-111.839386
2467141,01/12/2022,01/13/2022,01/12/2022,"1955 N Robson, Mesa, AZ, 85201",1,0.0,Self Reported (City Staff),2022,Jan,12,2022,Jan,13,2022,Jan,12,POINT (-111.836 33.4514),33.4513684,-111.8363745
2467197,01/12/2022,01/13/2022,01/12/2022,"1800 N Grand, Mesa, AZ, 85201",1,0.0,Self Reported (City Staff),2022,Jan,12,2022,Jan,13,2022,Jan,12,POINT (-111.836 33.4477),33.4476676,-111.8356471
2466874,01/12/2022,01/13/2022,01/12/2022,"644 W Main St, Mesa, AZ, 85201",1,0.0,Self Reported (City Staff),2022,Jan,12,2022,Jan,13,2022,Jan,12,POINT (-111.846 33.4163),33.4163183,-111.846125
2466764,01/12/2022,01/13/2022,01/12/2022,"158 S Date, Mesa, AZ, 85210",1,0.0,Self Reported (City Staff),2022,Jan,12,2022,Jan,13,2022,Jan,12,POINT (-111.844 33.4115),33.4114814,-111.8442903
2466790,01/12/2022,01/13/2022,01/12/2022,"207 S Extension Rd, Mesa, AZ, 85210",2,0.0,Self Reported (City Staff),2022,Jan,12,2022,Jan,13,2022,Jan,12,POINT (-111.848 33.4108),33.4107614,-111.8482164
2467246,01/12/2022,01/13/2022,01/12/2022,"W McLellan Rd-Alley, Mesa, AZ, 85201",1,0.0,Self Reported (City Staff),2022,Jan,12,2022,Jan,13,2022,Jan,12,POINT (-111.836 33.4445),33.4445485,-111.8356089
2467314,01/12/2022,01/13/2022,01/12/2022,"160 W Ivyglen St, Mesa, AZ, 85201",1,0.0,Self Reported (City Staff),2022,Jan,12,2022,Jan,13,2022,Jan,12,POINT (-111.835 33.446),33.4459824,-111.8353053
2467060,01/12/2022,01/13/2022,01/12/2022,"1213 N Country Club Dr, Mesa, AZ, 85201",1,0.0,Self Reported (City Staff),2022,Jan,12,2022,Jan,13,2022,Jan,12,POINT (-111.84 33.437),33.4370202,-111.8397293
2467024,01/12/2022,01/13/2022,01/12/2022,"810 N Date, Mesa, AZ, 85201",2,0.0,Self Reported (City Staff),2022,Jan,12,2022,Jan,13,2022,Jan,12,POINT (-111.845 33.4302),33.4301677,-111.8446224
2467085,01/12/2022,01/13/2022,01/12/2022,"1213 N Country Club Dr, Mesa, AZ, 85201",2,0.0,Self Reported (City Staff),2022,Jan,12,2022,Jan,13,2022,Jan,12,POINT (-111.84 33.4371),33.4370609,-111.8397457
2467199,01/12/2022,01/13/2022,01/12/2022,"1800 N Grand, Mesa, AZ, 85201",1,0.0,Self Reported (City Staff),2022,Jan,12,2022,Jan,13,2022,Jan,12,POINT (-111.836 33.4477),33.4476984,-111.8356064
2466862,01/12/2022,01/13/2022,01/12/2022,"721 W Pepper Pl, Mesa, AZ, 85201",1,0.0,Self Reported (City Staff),2022,Jan,12,2022,Jan,13,2022,Jan,12,POINT (-111.847 33.4163),33.4162778,-111.8468876
2467263,01/12/2022,01/13/2022,01/12/2022,"208 W Hillside St, Mesa, AZ, 85201",1,0.0,Self Reported (City Staff),2022,Jan,12,2022,Jan,13,2022,Jan,12,POINT (-111.836 33.4431),33.4430527,-111.8356687
2467638,01/12/2022,01/13/2022,01/12/2022,"58 S Mesa Dr, Mesa, AZ, 85210",25,0.0,Self Reported (City Staff),2022,Jan,12,2022,Jan,13,2022,Jan,12,POINT (-111.824 33.413),33.4130179,-111.8236653
2467034,01/12/2022,01/13/2022,01/12/2022,"845 N Date, Mesa, AZ, 85201",2,0.0,Self Reported (City Staff),2022,Jan,12,2022,Jan,13,2022,Jan,12,POINT (-111.845 33.4307),33.4306769,-111.8446315
2467308,01/12/2022,01/13/2022,01/12/2022,"1681 N Grand, Mesa, AZ, 85201",4,0.0,Self Reported (City Staff),2022,Jan,12,2022,Jan,13,2022,Jan,12,POINT (-111.835 33.446),33.4460416,-111.8354555
2467223,01/12/2022,01/13/2022,01/12/2022,"W Ivyglen St-Alley, Mesa, AZ, 85201",1,0.0,Self Reported (City Staff),2022,Jan,12,2022,Jan,13,2022,Jan,12,POINT (-111.836 33.446),33.446025,-111.8355862
2466916,01/12/2022,01/13/2022,01/12/2022,"702 W Pepper Pl, Mesa, AZ, 85201",2,0.0,Self Reported (City Staff),2022,Jan,12,2022,Jan,13,2022,Jan,12,POINT (-111.846 33.4165),33.4164677,-111.8459763
2467194,01/12/2022,01/13/2022,01/12/2022,"1800 N Grand, Mesa, AZ, 85201",1,0.0,Self Reported (City Staff),2022,Jan,12,2022,Jan,13,2022,Jan,12,POINT (-111.836 33.4477),33.447678,-111.8355886
2467079,01/12/2022,01/13/2022,01/12/2022,"1213 N Country Club Dr, Mesa, AZ, 85201",1,0.0,Self Reported (City Staff),2022,Jan,12,2022,Jan,13,2022,Jan,12,POINT (-111.84 33.4369),33.436897,-111.8396232
2467291,01/12/2022,01/13/2022,01/12/2022,"161 W Hillside St, Mesa, AZ, 85201",4,0.0,Self Reported (City Staff),2022,Jan,12,2022,Jan,13,2022,Jan,12,POINT (-111.835 33.4424),33.4424216,-111.835382
2467333,01/12/2022,01/13/2022,01/12/2022,"83 S Pomeroy, Mesa, AZ, 85210",30,0.0,Mobile App (Public),2022,Jan,12,2022,Jan,13,2022,Jan,12,POINT (-111.824 33.4133),33.4133105,-111.8237476
2466819,01/12/2022,01/13/2022,01/12/2022,"207 S Extension Rd, Mesa, AZ, 85210",4,0.0,Self Reported (City Staff),2022,Jan,12,2022,Jan,13,2022,Jan,12,POINT (-111.848 33.4113),33.4112594,-111.8477768
2466910,01/12/2022,01/13/2022,01/12/2022,"702 W Pepper Pl, Mesa, AZ, 85201",2,0.0,Self Reported (City Staff),2022,Jan,12,2022,Jan,13,2022,Jan,12,POINT (-111.846 33.4164),33.4164362,-111.8461652
2467235,01/12/2022,01/13/2022,01/12/2022,"305 W Indigo St-Alley, Mesa, AZ, 85201",1,0.0,Self Reported (City Staff),2022,Jan,12,2022,Jan,13,2022,Jan,12,POINT (-111.836 33.4453),33.4452558,-111.8355768
2467155,01/12/2022,01/13/2022,01/12/2022,"1958 N Lebaron, Mesa, AZ, 85201",2,0.0,Self Reported (City Staff),2022,Jan,12,2022,Jan,13,2022,Jan,12,POINT (-111.838 33.4513),33.4513251,-111.8377565
2466798,01/12/2022,01/13/2022,01/12/2022,"202 S Extension Rd, Mesa, AZ, 85210",1,0.0,Self Reported (City Staff),2022,Jan,12,2022,Jan,13,2022,Jan,12,POINT (-111.848 33.4112),33.4112115,-111.8484821
2467068,01/12/2022,01/13/2022,01/12/2022,"1213 N Country Club Dr, Mesa, AZ, 85201",1,0.0,Self Reported (City Staff),2022,Jan,12,2022,Jan,13,2022,Jan,12,POINT (-111.84 33.4369),33.4368902,-111.8397132
2467323,01/12/2022,01/13/2022,01/12/2022,"160 W Ivyglen St, Mesa, AZ, 85201",2,0.0,Self Reported (City Staff),2022,Jan,12,2022,Jan,13,2022,Jan,12,POINT (-111.835 33.446),33.4459955,-111.835318
2468942,01/13/2022,01/18/2022,01/13/2022,"1306 E Main St, Mesa, AZ, 85203",15,0.0,Self Reported (City Staff),2022,Jan,13,2022,Jan,18,2022,Jan,13,POINT (-111.803 33.4154),33.4154004,-111.8029143
2469654,01/13/2022,01/18/2022,01/18/2022,"5200 E University Dr, Mesa, AZ, 85205",6,0.2,Phone/Email (Public),2022,Jan,13,2022,Jan,18,2022,Jan,18,POINT (-111.719 33.4228),33.42279,-111.7190899
2468842,01/13/2022,01/18/2022,01/13/2022,"653 S Dobson Rd, Mesa, AZ, 85202",30,0.0,Self Reported (City Staff),2022,Jan,13,2022,Jan,18,2022,Jan,13,POINT (-111.875 33.4019),33.4019075,-111.8745542
2469155,01/13/2022,01/18/2022,01/13/2022,"1306 E Main St, Mesa, AZ, 85203",12,0.0,Self Reported (City Staff),2022,Jan,13,2022,Jan,18,2022,Jan,13,POINT (-111.803 33.4154),33.4154318,-111.8034042
2468789,01/13/2022,01/18/2022,01/13/2022,"665 S Dobson Rd, Mesa, AZ, 85202",6,0.0,Self Reported (City Staff),2022,Jan,13,2022,Jan,18,2022,Jan,13,POINT (-111.874 33.4016),33.4015846,-111.8744894
2469643,01/13/2022,01/18/2022,01/13/2022,"636 W McLellan Rd, Mesa, AZ, 85201",40,0.0,Self Reported (City Staff),2022,Jan,13,2022,Jan,18,2022,Jan,13,POINT (-111.845 33.4441),33.444134,-111.8448459
2468844,01/13/2022,01/18/2022,01/13/2022,"653 S Dobson Rd, Mesa, AZ, 85202",30,0.0,Self Reported (City Staff),2022,Jan,13,2022,Jan,18,2022,Jan,13,POINT (-111.875 33.4019),33.4019306,-111.8745766
2468754,01/13/2022,01/18/2022,01/13/2022,"675 S Dobson Rd, Mesa, AZ, 85202",20,0.0,Self Reported (City Staff),2022,Jan,13,2022,Jan,18,2022,Jan,13,POINT (-111.875 33.4013),33.4013162,-111.8745412
2469642,01/13/2022,01/18/2022,01/13/2022,"612 W McLellan Rd, Mesa, AZ, 85201",20,0.0,Self Reported (City Staff),2022,Jan,13,2022,Jan,18,2022,Jan,13,POINT (-111.844 33.4441),33.4441309,-111.8442253
2468751,01/13/2022,01/18/2022,01/13/2022,"675 S Dobson Rd, Mesa, AZ, 85202",12,0.0,Self Reported (City Staff),2022,Jan,13,2022,Jan,18,2022,Jan,13,POINT (-111.875 33.4013),33.4012736,-111.874529
2468879,01/13/2022,01/18/2022,01/13/2022,"641 S Dobson Rd, Mesa, AZ, 85202",40,0.0,Self Reported (City Staff),2022,Jan,13,2022,Jan,18,2022,Jan,13,POINT (-111.874 33.4023),33.4022502,-111.8744648
2472144,01/15/2022,01/18/2022,01/18/2022,"506 N Extension Rd, Mesa, AZ, 85201",6,0.2,Mobile App (Public),2022,Jan,15,2022,Jan,18,2022,Jan,18,POINT (-111.849 33.4243),33.424282,-111.848683
2472975,01/16/2022,01/18/2022,01/18/2022,"2823 E Dartmouth St, Mesa, AZ, 85213",1,0.2,Mobile App (Public),2022,Jan,16,2022,Jan,18,2022,Jan,18,POINT (-111.77 33.4282),33.428202,-111.770074
2473016,01/16/2022,01/18/2022,01/18/2022,"217 E Garnet Ave, Mesa, AZ, 85210",20,0.3,Mobile App (Public),2022,Jan,16,2022,Jan,18,2022,Jan,18,POINT (-111.827 33.3909),33.3908556,-111.8266683
2473335,01/17/2022,01/18/2022,01/18/2022,"8845 E Plana Ave, Mesa, AZ, 85212",60,0.1,Mobile App (Public),2022,Jan,17,2022,Jan,18,2022,Jan,18,POINT (-111.643 33.3582),33.3581811,-111.6433852
2474049,01/17/2022,01/18/2022,01/18/2022,"514 N Lesueur, Mesa, AZ, 85203",6,0.2,Mobile App (Public),2022,Jan,17,2022,Jan,18,2022,Jan,18,POINT (-111.82 33.4248),33.4247535,-111.8203205
2473369,01/17/2022,01/18/2022,01/18/2022,"2530 E Broadway Rd, Tempe, AZ, 85282",90,0.3,Website (Public),2022,Jan,17,2022,Jan,18,2022,Jan,18,POINT (-111.888 33.4081),33.4081496,-111.8884134
2474762,01/18/2022,01/19/2022,01/18/2022,"4731 E Adobe Rd, Mesa, AZ, 85205",2,0.0,Self Reported (City Staff),2022,Jan,18,2022,Jan,19,2022,Jan,18,POINT (-111.729 33.43),33.4299528,-111.7288852
2475775,01/18/2022,01/19/2022,01/19/2022,"544 N Sirrine, Mesa, AZ, 85201",60,0.2,Phone/Email (Public),2022,Jan,18,2022,Jan,19,2022,Jan,19,POINT (-111.829 33.4248),33.424751,-111.828994
2475314,01/18/2022,01/19/2022,01/18/2022,"2620 W Broadway Rd, Mesa, AZ, 85202",1,0.0,Self Reported (City Staff),2022,Jan,18,2022,Jan,19,2022,Jan,18,POINT (-111.888 33.408),33.4079979,-111.8881911
2475271,01/18/2022,01/19/2022,01/18/2022,"2672 W Broadway Rd, Mesa, AZ, 85202",2,0.0,Self Reported (City Staff),2022,Jan,18,2022,Jan,19,2022,Jan,18,POINT (-111.888 33.4076),33.4075976,-111.8880846
2475403,01/18/2022,01/19/2022,01/18/2022,"2627 W Birchwood Cir, Mesa, AZ, 85202",30,0.0,Self Reported (City Staff),2022,Jan,18,2022,Jan,19,2022,Jan,18,POINT (-111.889 33.4088),33.4087834,-111.8885678
2474959,01/18/2022,01/19/2022,01/18/2022,"Moorings at Mesa Cove, Mesa, AZ, 85203",4,0.0,Mobile App (Public),2022,Jan,18,2022,Jan,19,2022,Jan,18,POINT (-111.822 33.437),33.4369913,-111.822021
2475273,01/18/2022,01/19/2022,01/18/2022,"W Broadway Rd, Mesa, AZ, 85202",2,0.0,Self Reported (City Staff),2022,Jan,18,2022,Jan,19,2022,Jan,18,POINT (-111.888 33.4076),33.4075757,-111.8880202
2474736,01/18/2022,01/19/2022,01/18/2022,"4664 E Downing Cir, Mesa, AZ, 85205",5,0.0,Self Reported (City Staff),2022,Jan,18,2022,Jan,19,2022,Jan,18,POINT (-111.73 33.4299),33.4299183,-111.7295719
2474474,01/18/2022,01/19/2022,01/18/2022,"4798 E Adobe Rd, Mesa, AZ, 85205",30,0.0,Phone/Email (Public),2022,Jan,18,2022,Jan,19,2022,Jan,18,POINT (-111.728 33.4301),33.43005,-111.7277099
2474742,01/18/2022,01/19/2022,01/18/2022,"4664 E Downing Cir, Mesa, AZ, 85205",2,0.0,Self Reported (City Staff),2022,Jan,18,2022,Jan,19,2022,Jan,18,POINT (-111.73 33.4299),33.4299495,-111.729635
2477112,01/19/2022,01/20/2022,01/19/2022,"Moorings at Mesa Cove, Mesa, AZ, 85203",2,0.0,Mobile App (Public),2022,Jan,19,2022,Jan,20,2022,Jan,19,POINT (-111.819 33.437),33.4369829,-111.8190163
2477416,01/19/2022,01/20/2022,01/19/2022,0,1,0.0,Self Reported (City Staff),2022,Jan,19,2022,Jan,20,2022,Jan,19,POINT (-111.794 33.4255),33.4255285,-111.7938441
2477865,01/19/2022,01/20/2022,01/19/2022,"1022 S 29th Pl, Mesa, AZ, 85204",120,0.0,Self Reported (City Staff),2022,Jan,19,2022,Jan,20,2022,Jan,19,POINT (-111.769 33.3969),33.3968999,-111.769007
2476693,01/19/2022,01/20/2022,01/19/2022,0,6,0.0,Self Reported (City Staff),2022,Jan,19,2022,Jan,20,2022,Jan,19,POINT (-111.728 33.4363),33.4363455,-111.7276127
2476618,01/19/2022,01/20/2022,01/19/2022,"841 N 48th St, Mesa, AZ, 85205",2,0.0,Self Reported (City Staff),2022,Jan,19,2022,Jan,20,2022,Jan,19,POINT (-111.728 33.4312),33.4312219,-111.72761
2477286,01/19/2022,01/20/2022,01/19/2022,"642 E Brown Rd-Alley, Mesa, AZ, 85203",1,0.0,Self Reported (City Staff),2022,Jan,19,2022,Jan,20,2022,Jan,19,POINT (-111.816 33.4372),33.4371675,-111.8161827
2478334,01/19/2022,01/20/2022,01/20/2022,"884 N Racine Cir, Mesa, AZ, 85205",6,0.1,Website (Public),2022,Jan,19,2022,Jan,20,2022,Jan,20,POINT (-111.724 33.4317),33.4317099,-111.7242461
2477148,01/19/2022,01/20/2022,01/19/2022,"644 E Brown Rd-Alley, Mesa, AZ, 85203",1,0.0,Mobile App (Public),2022,Jan,19,2022,Jan,20,2022,Jan,19,POINT (-111.816 33.4372),33.4371511,-111.81619
2477950,01/19/2022,01/20/2022,01/19/2022,0,60,0.0,Self Reported (City Staff),2022,Jan,19,2022,Jan,20,2022,Jan,19,POINT (-111.769 33.3962),33.396203,-111.768844
2478114,01/19/2022,01/20/2022,01/19/2022,"802 S Coleman, Mesa, AZ, 85210",4,0.0,Self Reported (City Staff),2022,Jan,19,2022,Jan,20,2022,Jan,19,POINT (-111.834 33.4005),33.4004816,-111.8337771
2476709,01/19/2022,01/20/2022,01/19/2022,0,6,0.0,Self Reported (City Staff),2022,Jan,19,2022,Jan,20,2022,Jan,19,POINT (-111.728 33.4369),33.4369062,-111.7275917
2476558,01/19/2022,01/20/2022,01/19/2022,"4708 E Adobe Rd, Mesa, AZ, 85205",1,0.0,Self Reported (City Staff),2022,Jan,19,2022,Jan,20,2022,Jan,19,POINT (-111.73 33.4301),33.4300575,-111.7295652
2477117,01/19/2022,01/20/2022,01/19/2022,"435 N Sirrine, Mesa, AZ, 85201",120,0.0,Self Reported (City Staff),2022,Jan,19,2022,Jan,20,2022,Jan,19,POINT (-111.828 33.4234),33.4234357,-111.8284012
2477391,01/19/2022,01/20/2022,01/19/2022,"606 N Oracle, Mesa, AZ, 85203",1,0.0,Self Reported (City Staff),2022,Jan,19,2022,Jan,20,2022,Jan,19,POINT (-111.794 33.4262),33.4262103,-111.7943856
2477217,01/19/2022,01/20/2022,01/19/2022,"666 E Brown Rd-Alley, Mesa, AZ, 85203",1,0.0,Self Reported (City Staff),2022,Jan,19,2022,Jan,20,2022,Jan,19,POINT (-111.817 33.437),33.4369988,-111.816546
2478333,01/19/2022,01/20/2022,01/20/2022,"1 N San Jose, Mesa, AZ, 85201",8,0.2,Website (Public),2022,Jan,19,2022,Jan,20,2022,Jan,20,POINT (-111.878 33.4149),33.4149174,-111.8782237
2477386,01/19/2022,01/20/2022,01/19/2022,"606 N Oracle, Mesa, AZ, 85203",1,0.0,Self Reported (City Staff),2022,Jan,19,2022,Jan,20,2022,Jan,19,POINT (-111.794 33.4262),33.426223,-111.7943834
2476721,01/19/2022,01/20/2022,01/19/2022,"1159 N 48th St, Mesa, AZ, 85205",12,0.0,Self Reported (City Staff),2022,Jan,19,2022,Jan,20,2022,Jan,19,POINT (-111.728 33.4367),33.4367145,-111.7276375
2477394,01/19/2022,01/20/2022,01/19/2022,0,1,0.0,Self Reported (City Staff),2022,Jan,19,2022,Jan,20,2022,Jan,19,POINT (-111.794 33.4263),33.4262627,-111.7943725
2477958,01/19/2022,01/20/2022,01/19/2022,"1034 S 29th Pl, Mesa, AZ, 85204",20,0.0,Self Reported (City Staff),2022,Jan,19,2022,Jan,20,2022,Jan,19,POINT (-111.769 33.3963),33.396252,-111.7688478
2477132,01/19/2022,01/20/2022,01/19/2022,"640 E Brown Rd-Alley, Mesa, AZ, 85203",2,0.0,Mobile App (Public),2022,Jan,19,2022,Jan,20,2022,Jan,19,POINT (-111.816 33.4372),33.4371679,-111.8161429
2477187,01/19/2022,01/20/2022,01/19/2022,"Moorings at Mesa Cove, Mesa, AZ, 85203",1,0.0,Self Reported (City Staff),2022,Jan,19,2022,Jan,20,2022,Jan,19,POINT (-111.818 33.437),33.4370024,-111.8184194
2477381,01/19/2022,01/20/2022,01/19/2022,"606 N Oracle, Mesa, AZ, 85203",1,0.0,Self Reported (City Staff),2022,Jan,19,2022,Jan,20,2022,Jan,19,POINT (-111.794 33.4262),33.4262236,-111.7943448
2476664,01/19/2022,01/20/2022,01/19/2022,"4808 E Encanto St, Mesa, AZ, 85205",4,0.0,Self Reported (City Staff),2022,Jan,19,2022,Jan,20,2022,Jan,19,POINT (-111.728 33.4342),33.4342133,-111.7276309
2477414,01/19/2022,01/20/2022,01/19/2022,"653 N Hall-Alley, Mesa, AZ, 85203",1,0.0,Self Reported (City Staff),2022,Jan,19,2022,Jan,20,2022,Jan,19,POINT (-111.794 33.4255),33.4254921,-111.7938009
2477375,01/19/2022,01/20/2022,01/19/2022,"606 N Oracle, Mesa, AZ, 85203",1,0.0,Self Reported (City Staff),2022,Jan,19,2022,Jan,20,2022,Jan,19,POINT (-111.794 33.4262),33.4262006,-111.7944677
2478336,01/19/2022,01/20/2022,01/20/2022,"805 N 48th St, Mesa, AZ, 85205",4,0.1,Website (Public),2022,Jan,19,2022,Jan,20,2022,Jan,20,POINT (-111.728 33.4302),33.4301923,-111.7276096
2476638,01/19/2022,01/20/2022,01/19/2022,"4807 E Encanto St, Mesa, AZ, 85205",8,0.0,Self Reported (City Staff),2022,Jan,19,2022,Jan,20,2022,Jan,19,POINT (-111.728 33.4338),33.4337927,-111.7276175
2479117,01/20/2022,01/24/2022,01/20/2022,"1538 W Southern Ave, Mesa, AZ, 85202",12,0.0,Self Reported (City Staff),2022,Jan,20,2022,Jan,24,2022,Jan,20,POINT (-111.866 33.3932),33.3931908,-111.8656296
2479588,01/20/2022,01/24/2022,01/20/2022,"2621 E Fox St, Mesa, AZ, 85213",8,0.0,Self Reported (City Staff),2022,Jan,20,2022,Jan,24,2022,Jan,20,POINT (-111.774 33.436),33.4360004,-111.7744583
2479956,01/20/2022,01/24/2022,01/24/2022,"1570 S 32nd St, Mesa, AZ, 85204",4,0.1,Website (Public),2022,Jan,20,2022,Jan,24,2022,Jan,24,POINT (-111.763 33.3864),33.3864104,-111.7626205
2478979,01/20/2022,01/24/2022,01/20/2022,"78 E University Dr, Mesa, AZ, 85201",15,0.0,Self Reported (City Staff),2022,Jan,20,2022,Jan,24,2022,Jan,20,POINT (-111.829 33.4224),33.4224133,-111.8288992
2479282,01/20/2022,01/24/2022,01/20/2022,"2415 W Main St, Mesa, AZ, 85201",15,0.0,Self Reported (City Staff),2022,Jan,20,2022,Jan,24,2022,Jan,20,POINT (-111.883 33.4146),33.4146126,-111.8832363
2478918,01/20/2022,01/24/2022,01/20/2022,"2499 E Contessa St, Mesa, AZ, 85213",1,0.0,Phone/Email (Public),2022,Jan,20,2022,Jan,24,2022,Jan,20,POINT (-111.777 33.425),33.4250001,-111.7774899
2479947,01/20/2022,01/24/2022,01/24/2022,"1574 S 32nd St, Mesa, AZ, 85204",8,0.1,Website (Public),2022,Jan,20,2022,Jan,24,2022,Jan,24,POINT (-111.763 33.3864),33.3863634,-111.7625454
2480173,01/20/2022,01/24/2022,01/24/2022,"1126 N 24th St, Mesa, AZ, 85213",48,0.2,Website (Public),2022,Jan,20,2022,Jan,24,2022,Jan,24,POINT (-111.78 33.4361),33.4361061,-111.7795855
2479244,01/20/2022,01/24/2022,01/20/2022,"2242 W Main St, Mesa, AZ, 85201",4,0.0,Self Reported (City Staff),2022,Jan,20,2022,Jan,24,2022,Jan,20,POINT (-111.88 33.415),33.4150146,-111.8801534
2479132,01/20/2022,01/24/2022,01/20/2022,"W Southern Ave, Mesa, AZ, 85202",2,0.0,Self Reported (City Staff),2022,Jan,20,2022,Jan,24,2022,Jan,20,POINT (-111.866 33.3931),33.3931392,-111.8663069
2479149,01/20/2022,01/24/2022,01/20/2022,"W Southern Ave, Mesa, AZ, 85202",4,0.0,Self Reported (City Staff),2022,Jan,20,2022,Jan,24,2022,Jan,20,POINT (-111.87 33.3931),33.3931389,-111.8698888
2478996,01/20/2022,01/24/2022,01/20/2022,"78 E University Dr, Mesa, AZ, 85201",4,0.0,Self Reported (City Staff),2022,Jan,20,2022,Jan,24,2022,Jan,20,POINT (-111.829 33.4224),33.4223736,-111.8294207
2479446,01/20/2022,01/24/2022,01/20/2022,"2594 E Fox St, Mesa, AZ, 85213",1,0.0,Self Reported (City Staff),2022,Jan,20,2022,Jan,24,2022,Jan,20,POINT (-111.775 33.4359),33.43595,-111.7752958
2480160,01/20/2022,01/24/2022,01/24/2022,"1694 S Greenfield Rd, Mesa, AZ, 85206",6,0.1,Mobile App (Public),2022,Jan,20,2022,Jan,24,2022,Jan,24,POINT (-111.737 33.3845),33.3845129,-111.7374644
2479233,01/20/2022,01/24/2022,01/20/2022,"2130 W Main St, Mesa, AZ, 85201",1,0.0,Self Reported (City Staff),2022,Jan,20,2022,Jan,24,2022,Jan,20,POINT (-111.878 33.415),33.4150286,-111.8781368
2478943,01/20/2022,01/24/2022,01/20/2022,"514 N Sirrine, Mesa, AZ, 85201",5,0.0,Self Reported (City Staff),2022,Jan,20,2022,Jan,24,2022,Jan,20,POINT (-111.829 33.424),33.4240009,-111.8291672
2479066,01/20/2022,01/24/2022,01/20/2022,"2559 E Fox St, Mesa, AZ, 85213",15,0.0,Phone/Email (Public),2022,Jan,20,2022,Jan,24,2022,Jan,20,POINT (-111.775 33.4357),33.43573,-111.7755
2479961,01/20/2022,01/24/2022,01/24/2022,0,6,0.1,Website (Public),2022,Jan,20,2022,Jan,24,2022,Jan,24,POINT (-111.762 33.3834),33.3833645,-111.762296
2479383,01/20/2022,01/24/2022,01/20/2022,"2608 E Evergreen St, Mesa, AZ, 85213",15,0.0,Self Reported (City Staff),2022,Jan,20,2022,Jan,24,2022,Jan,20,POINT (-111.775 33.4323),33.4323368,-111.7752279
2479093,01/20/2022,01/24/2022,01/20/2022,"W Southern Ave, Mesa, AZ, 85202",4,0.0,Self Reported (City Staff),2022,Jan,20,2022,Jan,24,2022,Jan,20,POINT (-111.865 33.3931),33.3930862,-111.8651413
2480364,01/20/2022,01/24/2022,01/24/2022,"218 E Garnet Ave, Mesa, AZ, 85210",40,0.2,Mobile App (Public),2022,Jan,20,2022,Jan,24,2022,Jan,24,POINT (-111.827 33.3914),33.3913665,-111.8268356
2479447,01/20/2022,01/24/2022,01/24/2022,"Moorings at Mesa Cove, Mesa, AZ, 85203",4,0.2,Mobile App (Public),2022,Jan,20,2022,Jan,24,2022,Jan,24,POINT (-111.819 33.437),33.437011,-111.8190116
2479304,01/20/2022,01/24/2022,01/20/2022,"5 S Roosevelt Rd, Mesa, AZ, 85202",16,0.0,Self Reported (City Staff),2022,Jan,20,2022,Jan,24,2022,Jan,20,POINT (-111.883 33.4146),33.4146226,-111.8829087
2479172,01/20/2022,01/24/2022,01/20/2022,"1820 W Southern Ave, Mesa, AZ, 85202",1,0.0,Self Reported (City Staff),2022,Jan,20,2022,Jan,24,2022,Jan,20,POINT (-111.871 33.3932),33.3931772,-111.8708047
2479512,01/20/2022,01/24/2022,01/20/2022,"2558 E Fountain St, Mesa, AZ, 85213",6,0.0,Self Reported (City Staff),2022,Jan,20,2022,Jan,24,2022,Jan,20,POINT (-111.775 33.4355),33.4355323,-111.775368
2478940,01/20/2022,01/24/2022,01/20/2022,"455 N Lewis, Mesa, AZ, 85201",10,0.0,Self Reported (City Staff),2022,Jan,20,2022,Jan,24,2022,Jan,20,POINT (-111.829 33.4239),33.4239467,-111.8292923
2481294,01/21/2022,01/24/2022,01/24/2022,"2154 E Elmwood St, Mesa, AZ, 85213",30,0.2,Website (Public),2022,Jan,21,2022,Jan,24,2022,Jan,24,POINT (-111.784 33.433),33.4330172,-111.7841291
2482982,01/22/2022,01/24/2022,01/24/2022,"1314 N Arco, Mesa, AZ, 85213",230,0.2,Website (Public),2022,Jan,22,2022,Jan,24,2022,Jan,24,POINT (-111.765 33.4394),33.4393919,-111.764946
2484696,01/24/2022,01/25/2022,01/24/2022,"403 N Ash-Alley, Mesa, AZ, 85201",3,0.0,Website (Public),2022,Jan,24,2022,Jan,25,2022,Jan,24,POINT (-111.867 33.4235),33.4235116,-111.8671167
2485297,01/24/2022,01/25/2022,01/24/2022,"2558 E Fountain St, Mesa, AZ, 85213",5,0.0,Self Reported (City Staff),2022,Jan,24,2022,Jan,25,2022,Jan,24,POINT (-111.775 33.4354),33.4354491,-111.775329
2484035,01/24/2022,01/25/2022,01/24/2022,"508 N Drew St E, Mesa, AZ, 85201",2,0.0,Website (Public),2022,Jan,24,2022,Jan,25,2022,Jan,24,POINT (-111.833 33.4246),33.4246438,-111.8326034
2483888,01/24/2022,01/25/2022,01/24/2022,"W 6th Pl-Alley, Mesa, AZ, 85201",2,0.0,Website (Public),2022,Jan,24,2022,Jan,25,2022,Jan,24,POINT (-111.865 33.4269),33.42686,-111.8654091
2485293,01/24/2022,01/25/2022,01/24/2022,"2548 E Brown Rd, Mesa, AZ, 85213",10,0.0,Self Reported (City Staff),2022,Jan,24,2022,Jan,25,2022,Jan,24,POINT (-111.776 33.4374),33.4374134,-111.7759974
2484178,01/24/2022,01/25/2022,01/24/2022,"2616 E Fox St, Mesa, AZ, 85213",30,0.0,Phone/Email (Public),2022,Jan,24,2022,Jan,25,2022,Jan,24,POINT (-111.774 33.4363),33.43625,-111.774438
2483908,01/24/2022,01/25/2022,01/24/2022,"W 7th St-Alley, Mesa, AZ, 85201",2,0.0,Website (Public),2022,Jan,24,2022,Jan,25,2022,Jan,24,POINT (-111.865 33.4276),33.4276032,-111.8650732
2485289,01/24/2022,01/25/2022,01/24/2022,"2558 E Fountain St, Mesa, AZ, 85213",6,0.0,Self Reported (City Staff),2022,Jan,24,2022,Jan,25,2022,Jan,24,POINT (-111.775 33.4355),33.4355155,-111.7753484
2484191,01/24/2022,01/25/2022,01/24/2022,"2801 E Baseline Rd, Gilbert, AZ, 85234",10,0.0,Phone/Email (Public),2022,Jan,24,2022,Jan,25,2022,Jan,24,POINT (-111.771 33.3791),33.3791,-111.7712699
2485267,01/24/2022,01/25/2022,01/24/2022,"2562 E Fox St, Mesa, AZ, 85213",6,0.0,Self Reported (City Staff),2022,Jan,24,2022,Jan,25,2022,Jan,24,POINT (-111.775 33.436),33.4360366,-111.775257
2485619,01/24/2022,01/25/2022,01/25/2022,"332 E 5th Ave, Mesa, AZ, 85210",60,0.1,Website (Public),2022,Jan,24,2022,Jan,25,2022,Jan,25,POINT (-111.824 33.4062),33.4061524,-111.8238688
2484026,01/24/2022,01/25/2022,01/24/2022,"508 N Drew St E, Mesa, AZ, 85201",10,0.0,Website (Public),2022,Jan,24,2022,Jan,25,2022,Jan,24,POINT (-111.833 33.4246),33.4246438,-111.8326034
2487513,01/25/2022,01/26/2022,01/25/2022,"157 W Inglewood St, Mesa, AZ, 85201",1,0.0,Self Reported (City Staff),2022,Jan,25,2022,Jan,26,2022,Jan,25,POINT (-111.835 33.4472),33.447216,-111.8353489
2487957,01/25/2022,01/26/2022,01/26/2022,"3466 E University Dr, Mesa, AZ, 85213",60,0.1,Mobile App (Public),2022,Jan,25,2022,Jan,26,2022,Jan,26,POINT (-111.757 33.423),33.4230163,-111.7569141
2486697,01/25/2022,01/26/2022,01/25/2022,"240 N Gilbert Rd, Mesa, AZ, 85203",4,0.0,Self Reported (City Staff),2022,Jan,25,2022,Jan,26,2022,Jan,25,POINT (-111.789 33.4199),33.4198619,-111.7885292
2487458,01/25/2022,01/26/2022,01/25/2022,"1800 N Grand, Mesa, AZ, 85201",1,0.0,Self Reported (City Staff),2022,Jan,25,2022,Jan,26,2022,Jan,25,POINT (-111.836 33.4478),33.4478057,-111.835584
2486187,01/25/2022,01/26/2022,01/25/2022,"551 S Wilbur, Mesa, AZ, 85210",50,0.0,Self Reported (City Staff),2022,Jan,25,2022,Jan,26,2022,Jan,25,POINT (-111.825 33.4047),33.4046852,-111.8249268
2487956,01/25/2022,01/26/2022,01/26/2022,"3476 E University Dr, Mesa, AZ, 85213",6,0.1,Mobile App (Public),2022,Jan,25,2022,Jan,26,2022,Jan,26,POINT (-111.757 33.4229),33.4228691,-111.7567891
2486247,01/25/2022,01/26/2022,01/25/2022,"2857 E Downing Cir, Mesa, AZ, 85213",1,0.0,Website (Public),2022,Jan,25,2022,Jan,26,2022,Jan,25,POINT (-111.768 33.429),33.4289622,-111.7680359
2486854,01/25/2022,01/26/2022,01/25/2022,"2132 E Main St-Alley, Mesa, AZ, 85204",2,0.0,Self Reported (City Staff),2022,Jan,25,2022,Jan,26,2022,Jan,25,POINT (-111.781 33.412),33.4120223,-111.7807986
2487386,01/25/2022,01/26/2022,01/25/2022,"217 S Extension Rd, Mesa, AZ, 85210",1,0.0,Self Reported (City Staff),2022,Jan,25,2022,Jan,26,2022,Jan,25,POINT (-111.848 33.4108),33.4107515,-111.8482781
2486508,01/25/2022,01/26/2022,01/25/2022,"5 W 7th St, Mesa, AZ, 85201",3,0.0,Self Reported (City Staff),2022,Jan,25,2022,Jan,26,2022,Jan,25,POINT (-111.831 33.4274),33.4274102,-111.8314127
2486180,01/25/2022,01/26/2022,01/25/2022,"2601 E Boston St, Mesa, AZ, 85213",20,0.0,Phone/Email (Public),2022,Jan,25,2022,Jan,26,2022,Jan,25,POINT (-111.775 33.4194),33.41938,-111.7752699
2487518,01/25/2022,01/26/2022,01/25/2022,"157 W Inglewood St, Mesa, AZ, 85201",1,0.0,Self Reported (City Staff),2022,Jan,25,2022,Jan,26,2022,Jan,25,POINT (-111.835 33.4472),33.4472419,-111.8353444
2486507,01/25/2022,01/26/2022,01/25/2022,"5 W 7th St, Mesa, AZ, 85201",3,0.0,Self Reported (City Staff),2022,Jan,25,2022,Jan,26,2022,Jan,25,POINT (-111.831 33.4275),33.4275462,-111.8314705
2487029,01/25/2022,01/26/2022,01/25/2022,"417 S Dobson Rd, Mesa, AZ, 85202",1,0.0,Self Reported (City Staff),2022,Jan,25,2022,Jan,26,2022,Jan,25,POINT (-111.874 33.4074),33.4074256,-111.8743864
2486509,01/25/2022,01/26/2022,01/25/2022,"Moorings at Mesa Cove, Mesa, AZ, 85203",1,0.0,Mobile App (Public),2022,Jan,25,2022,Jan,26,2022,Jan,25,POINT (-111.822 33.4375),33.4375188,-111.8223562
2487515,01/25/2022,01/26/2022,01/25/2022,"157 W Inglewood St, Mesa, AZ, 85201",1,0.0,Self Reported (City Staff),2022,Jan,25,2022,Jan,26,2022,Jan,25,POINT (-111.835 33.4472),33.4472357,-111.8353502
2489092,01/26/2022,01/27/2022,01/26/2022,"1325 E Main St, Mesa, AZ, 85203",2,0.0,Self Reported (City Staff),2022,Jan,26,2022,Jan,27,2022,Jan,26,POINT (-111.803 33.415),33.4150445,-111.8031007
2488567,01/26/2022,01/27/2022,01/26/2022,"810 E Southern Ave, Mesa, AZ, 85204",2,0.0,Self Reported (City Staff),2022,Jan,26,2022,Jan,27,2022,Jan,26,POINT (-111.814 33.3935),33.3935122,-111.8141139
2488516,01/26/2022,01/27/2022,01/26/2022,"1446 S Hobson, Mesa, AZ, 85204",1,0.0,Self Reported (City Staff),2022,Jan,26,2022,Jan,27,2022,Jan,26,POINT (-111.819 33.3888),33.38882,-111.8185791
2488807,01/26/2022,01/27/2022,01/26/2022,"1407 W Pueblo Ave, Mesa, AZ, 85202",1,0.0,Self Reported (City Staff),2022,Jan,26,2022,Jan,27,2022,Jan,26,POINT (-111.862 33.4004),33.4004151,-111.8617736
2489694,01/26/2022,01/27/2022,01/26/2022,"40 N Date, Mesa, AZ, 85201",60,0.0,Self Reported (City Staff),2022,Jan,26,2022,Jan,27,2022,Jan,26,POINT (-111.844 33.4164),33.41637,-111.8443577
2488649,01/26/2022,01/27/2022,01/26/2022,"809 E 7th St, Mesa, AZ, 85203",1,0.0,Self Reported (City Staff),2022,Jan,26,2022,Jan,27,2022,Jan,26,POINT (-111.814 33.4275),33.427523,-111.8139713
2489428,01/26/2022,01/27/2022,01/26/2022,"1430 N Robin Ln, Mesa, AZ, 85213",50,0.0,Self Reported (City Staff),2022,Jan,26,2022,Jan,27,2022,Jan,26,POINT (-111.769 33.4416),33.4416296,-111.7692285
2489073,01/26/2022,01/27/2022,01/26/2022,"1205 E Main St, Mesa, AZ, 85203",1,0.0,Self Reported (City Staff),2022,Jan,26,2022,Jan,27,2022,Jan,26,POINT (-111.805 33.415),33.4149864,-111.804663
2489894,01/26/2022,01/27/2022,01/27/2022,"1956 E Fairfield St-Alley, Mesa, AZ, 85213",1,0.1,Mobile App (Public),2022,Jan,26,2022,Jan,27,2022,Jan,27,POINT (-111.784 33.4347),33.4347334,-111.7836685
2489712,01/26/2022,01/27/2022,01/26/2022,"770 W Main St, Mesa, AZ, 85201",3,0.0,Self Reported (City Staff),2022,Jan,26,2022,Jan,27,2022,Jan,26,POINT (-111.848 33.4151),33.41515,-111.8476723
2488809,01/26/2022,01/27/2022,01/26/2022,"1407 W Pueblo Ave, Mesa, AZ, 85202",2,0.0,Self Reported (City Staff),2022,Jan,26,2022,Jan,27,2022,Jan,26,POINT (-111.862 33.4004),33.4004085,-111.8617835
2489597,01/26/2022,01/27/2022,01/26/2022,"539 N Drew St E, Mesa, AZ, 85201",60,0.0,Self Reported (City Staff),2022,Jan,26,2022,Jan,27,2022,Jan,26,POINT (-111.832 33.4252),33.4252129,-111.8319238
2488799,01/26/2022,01/27/2022,01/26/2022,"897 S Standage, Mesa, AZ, 85202",12,0.0,Self Reported (City Staff),2022,Jan,26,2022,Jan,27,2022,Jan,26,POINT (-111.862 33.4004),33.4004464,-111.8617411
2489425,01/26/2022,01/27/2022,01/26/2022,"1430 N Robin Ln, Mesa, AZ, 85213",100,0.0,Self Reported (City Staff),2022,Jan,26,2022,Jan,27,2022,Jan,26,POINT (-111.769 33.4417),33.4416771,-111.7691961
2488435,01/26/2022,01/27/2022,01/26/2022,0,1,0.0,Self Reported (City Staff),2022,Jan,26,2022,Jan,27,2022,Jan,26,POINT (-111.823 33.4261),33.4260553,-111.823451
2489071,01/26/2022,01/27/2022,01/26/2022,"1235 E Main St, Mesa, AZ, 85203",1,0.0,Self Reported (City Staff),2022,Jan,26,2022,Jan,27,2022,Jan,26,POINT (-111.805 33.415),33.4150021,-111.8045085
2488868,01/26/2022,01/27/2022,01/26/2022,"608 E 8th Ave, Mesa, AZ, 85204",1,0.0,Self Reported (City Staff),2022,Jan,26,2022,Jan,27,2022,Jan,26,POINT (-111.819 33.4009),33.400878,-111.8185098
2489248,01/26/2022,01/27/2022,01/26/2022,"1430 N Robin Ln, Mesa, AZ, 85213",100,0.0,Website (Public),2022,Jan,26,2022,Jan,27,2022,Jan,26,POINT (-111.769 33.4416),33.4416435,-111.7691141
2488407,01/26/2022,01/27/2022,01/26/2022,"1051 N Wedgewood Dr, Mesa, AZ, 85203",2,0.0,Self Reported (City Staff),2022,Jan,26,2022,Jan,27,2022,Jan,26,POINT (-111.817 33.4343),33.4343153,-111.817077
2488803,01/26/2022,01/27/2022,01/26/2022,"1407 W Pueblo Ave, Mesa, AZ, 85202",1,0.0,Self Reported (City Staff),2022,Jan,26,2022,Jan,27,2022,Jan,26,POINT (-111.862 33.4004),33.4003995,-111.8617966
2489067,01/26/2022,01/27/2022,01/26/2022,"1235 E Main St, Mesa, AZ, 85203",4,0.0,Self Reported (City Staff),2022,Jan,26,2022,Jan,27,2022,Jan,26,POINT (-111.805 33.415),33.4150046,-111.8045213
2490473,01/27/2022,01/31/2022,01/27/2022,0,25,0.0,Self Reported (City Staff),2022,Jan,27,2022,Jan,31,2022,Jan,27,POINT (-111.889 33.4099),33.4099491,-111.8886037
2490561,01/27/2022,01/31/2022,01/27/2022,"Mesa, AZ, 85202",2,0.0,Self Reported (City Staff),2022,Jan,27,2022,Jan,31,2022,Jan,27,POINT (-111.888 33.4109),33.4109086,-111.888092
2490479,01/27/2022,01/31/2022,01/27/2022,"2628 W Birchwood Cir, Mesa, AZ, 85202",20,0.0,Self Reported (City Staff),2022,Jan,27,2022,Jan,31,2022,Jan,27,POINT (-111.889 33.4099),33.4098744,-111.8885275
2490388,01/27/2022,01/31/2022,01/27/2022,"2474 W 8th Ave, Mesa, AZ, 85202",1,0.0,Self Reported (City Staff),2022,Jan,27,2022,Jan,31,2022,Jan,27,POINT (-111.885 33.4001),33.4001186,-111.8846674
2491459,01/27/2022,01/31/2022,01/31/2022,"233 E Main St, Mesa, AZ, 85201",15,0.2,Mobile App (Public),2022,Jan,27,2022,Jan,31,2022,Jan,31,POINT (-111.824 33.414),33.4139622,-111.8240852
2491105,01/27/2022,01/31/2022,01/27/2022,"N Gilbert Rd, Mesa, AZ, 85203",20,0.0,Self Reported (City Staff),2022,Jan,27,2022,Jan,31,2022,Jan,27,POINT (-111.787 33.4647),33.4647291,-111.7873454
2490605,01/27/2022,01/31/2022,01/27/2022,"28 N Phyllis St, Mesa, AZ, 85201",1,0.0,Self Reported (City Staff),2022,Jan,27,2022,Jan,31,2022,Jan,27,POINT (-111.883 33.4162),33.4161835,-111.8829809
2491106,01/27/2022,01/31/2022,01/27/2022,"N Gilbert Rd, Mesa, AZ, 85203",8,0.0,Self Reported (City Staff),2022,Jan,27,2022,Jan,31,2022,Jan,27,POINT (-111.787 33.4647),33.4647416,-111.7873142
2491896,01/27/2022,01/31/2022,01/31/2022,"893 N Lindsay Rd, Mesa, AZ, 85213",4,0.1,Website (Public),2022,Jan,27,2022,Jan,31,2022,Jan,31,POINT (-111.771 33.4317),33.4317245,-111.7708978
2490522,01/27/2022,01/31/2022,01/27/2022,"2628 W Birchwood Cir, Mesa, AZ, 85202",25,0.0,Self Reported (City Staff),2022,Jan,27,2022,Jan,31,2022,Jan,27,POINT (-111.889 33.4101),33.4101194,-111.8886169
2490607,01/27/2022,01/31/2022,01/27/2022,"40 N Phyllis St, Mesa, AZ, 85201",1,0.0,Self Reported (City Staff),2022,Jan,27,2022,Jan,31,2022,Jan,27,POINT (-111.882 33.4167),33.4167036,-111.8824526
2491112,01/27/2022,01/31/2022,01/27/2022,"N Gilbert Rd, Mesa, AZ, 85203",8,0.0,Self Reported (City Staff),2022,Jan,27,2022,Jan,31,2022,Jan,27,POINT (-111.787 33.4648),33.4647889,-111.787295
2490460,01/27/2022,01/31/2022,01/27/2022,"2628 W Birchwood Cir, Mesa, AZ, 85202",30,0.0,Self Reported (City Staff),2022,Jan,27,2022,Jan,31,2022,Jan,27,POINT (-111.889 33.4099),33.409883,-111.8886247
2490485,01/27/2022,01/31/2022,01/27/2022,"2628 W Birchwood Cir, Mesa, AZ, 85202",15,0.0,Self Reported (City Staff),2022,Jan,27,2022,Jan,31,2022,Jan,27,POINT (-111.889 33.41),33.4100165,-111.8885728
2490523,01/27/2022,01/31/2022,01/27/2022,"2628 W Birchwood Cir, Mesa, AZ, 85202",4,0.0,Self Reported (City Staff),2022,Jan,27,2022,Jan,31,2022,Jan,27,POINT (-111.889 33.4101),33.4101172,-111.8885202
2490393,01/27/2022,01/31/2022,01/27/2022,"760 S El Dorado, Mesa, AZ, 85202",1,0.0,Self Reported (City Staff),2022,Jan,27,2022,Jan,31,2022,Jan,27,POINT (-111.885 33.4002),33.400157,-111.8846175
2490722,01/27/2022,01/31/2022,01/27/2022,"1115 W Main St, Mesa, AZ, 85201",1,0.0,Self Reported (City Staff),2022,Jan,27,2022,Jan,31,2022,Jan,27,POINT (-111.855 33.4148),33.4147534,-111.8552835
2492016,01/28/2022,01/31/2022,01/31/2022,"E Madero Ave, Mesa, AZ, 85209",5,0.1,Mobile App (Public),2022,Jan,28,2022,Jan,31,2022,Jan,31,POINT (-111.605 33.3717),33.3716768,-111.6048867
2493947,01/29/2022,01/31/2022,01/31/2022,"18 N Longmore, Mesa, AZ, 85201",10,0.2,Mobile App (Public),2022,Jan,29,2022,Jan,31,2022,Jan,31,POINT (-111.865 33.4153),33.4153462,-111.8654154
2494171,01/29/2022,01/31/2022,01/31/2022,0,10,0.2,Mobile App (Public),2022,Jan,29,2022,Jan,31,2022,Jan,31,POINT (-111.821 33.426),33.4260245,-111.8208761
2493944,01/29/2022,01/31/2022,01/31/2022,"807 N Mesa Dr, Mesa, AZ, 85201",6,0.2,Mobile App (Public),2022,Jan,29,2022,Jan,31,2022,Jan,31,POINT (-111.823 33.4301),33.4301158,-111.8226712
2494449,01/30/2022,01/31/2022,01/31/2022,"2806 E Dartmouth St, Mesa, AZ, 85213",4,0.1,Mobile App (Public),2022,Jan,30,2022,Jan,31,2022,Jan,31,POINT (-111.771 33.4287),33.4286504,-111.7706526
2495311,01/31/2022,02/01/2022,01/31/2022,"1685 N Horne, Mesa, AZ, 85203",100,0.0,Self Reported (City Staff),2022,Jan,31,2022,Feb,01,2022,Jan,31,POINT (-111.813 33.4457),33.4456951,-111.8130767
2495217,01/31/2022,02/01/2022,01/31/2022,"2488 E Covina St, Mesa, AZ, 85213",3,0.0,Self Reported (City Staff),2022,Jan,31,2022,Feb,01,2022,Jan,31,POINT (-111.778 33.4258),33.4258045,-111.7776652
2495785,01/31/2022,02/01/2022,01/31/2022,"AZ-202-LOOP E, Mesa, AZ, 85213",12,0.0,Self Reported (City Staff),2022,Jan,31,2022,Feb,01,2022,Jan,31,POINT (-111.786 33.465),33.465027,-111.7860597
2494935,01/31/2022,02/01/2022,01/31/2022,"10621 E Medina Ave, Mesa, AZ, 85209",5,0.0,Self Reported (City Staff),2022,Jan,31,2022,Feb,01,2022,Jan,31,POINT (-111.605 33.3718),33.3718093,-111.6052456
2496379,01/31/2022,02/01/2022,01/31/2022,"1061 N Dobson Rd, Mesa, AZ, 85201",5,0.0,Self Reported (City Staff),2022,Jan,31,2022,Feb,01,2022,Jan,31,POINT (-111.866 33.4379),33.4379483,-111.8656792
2496049,01/31/2022,02/01/2022,01/31/2022,"1164 N 26th St, Mesa, AZ, 85213",6,0.0,Self Reported (City Staff),2022,Jan,31,2022,Feb,01,2022,Jan,31,POINT (-111.775 33.4357),33.4356758,-111.7752732
2494975,01/31/2022,02/01/2022,01/31/2022,"10621 E Medina Ave, Mesa, AZ, 85209",4,0.0,Self Reported (City Staff),2022,Jan,31,2022,Feb,01,2022,Jan,31,POINT (-111.605 33.3717),33.3716994,-111.6053008
2495640,01/31/2022,02/01/2022,01/31/2022,"1061 N Dobson Rd, Mesa, AZ, 85201",140,0.0,Mobile App (Public),2022,Jan,31,2022,Feb,01,2022,Jan,31,POINT (-111.866 33.4376),33.4375639,-111.8657052
2494938,01/31/2022,02/01/2022,01/31/2022,"10621 E Medina Ave, Mesa, AZ, 85209",12,0.0,Self Reported (City Staff),2022,Jan,31,2022,Feb,01,2022,Jan,31,POINT (-111.605 33.3718),33.3717833,-111.6052597
2496683,01/31/2022,02/01/2022,02/01/2022,"2923 E Fairfield St, Mesa, AZ, 85213",2,0.1,Website (Public),2022,Jan,31,2022,Feb,01,2022,Feb,01,POINT (-111.768 33.4341),33.4340916,-111.7676979
2495783,01/31/2022,02/01/2022,01/31/2022,"1911 E McDowell Rd, Mesa, AZ, 85203",4,0.0,Self Reported (City Staff),2022,Jan,31,2022,Feb,01,2022,Jan,31,POINT (-111.789 33.4663),33.4662725,-111.7892141
2495545,01/31/2022,02/01/2022,01/31/2022,"709 S Country Club Dr, Mesa, AZ, 85210",3,0.0,Self Reported (City Staff),2022,Jan,31,2022,Feb,01,2022,Jan,31,POINT (-111.84 33.4017),33.4017205,-111.8399776
2495669,01/31/2022,02/01/2022,01/31/2022,"AZ-202-LOOP E, Mesa, AZ, 85201",10,0.0,Mobile App (Public),2022,Jan,31,2022,Feb,01,2022,Jan,31,POINT (-111.867 33.438),33.4380339,-111.867281
2496016,01/31/2022,02/01/2022,01/31/2022,"2604 E Fox St, Mesa, AZ, 85213",3,0.0,Self Reported (City Staff),2022,Jan,31,2022,Feb,01,2022,Jan,31,POINT (-111.775 33.436),33.4360354,-111.7752335
2494968,01/31/2022,02/01/2022,01/31/2022,"10621 E Medina Ave, Mesa, AZ, 85209",3,0.0,Self Reported (City Staff),2022,Jan,31,2022,Feb,01,2022,Jan,31,POINT (-111.605 33.3716),33.371645,-111.6052138
2495140,01/31/2022,02/01/2022,01/31/2022,"AZ-202-LOOP E, Mesa, AZ, 85203",25,0.0,Phone/Email (Public),2022,Jan,31,2022,Feb,01,2022,Jan,31,POINT (-111.787 33.4653),33.46534,-111.7872399
2495743,01/31/2022,02/01/2022,01/31/2022,"1139 N 24th St, Mesa, AZ, 85213",30,0.0,Phone/Email (Public),2022,Jan,31,2022,Feb,01,2022,Jan,31,POINT (-111.78 33.4363),33.4362639,-111.7795426
2497012,01/31/2022,02/01/2022,02/01/2022,"715 N Almar, Mesa, AZ, 85213",8,0.1,Mobile App (Public),2022,Jan,31,2022,Feb,01,2022,Feb,01,POINT (-111.761 33.429),33.4290014,-111.7610256
2495309,01/31/2022,02/01/2022,01/31/2022,"1681 N Horne, Mesa, AZ, 85203",25,0.0,Self Reported (City Staff),2022,Jan,31,2022,Feb,01,2022,Jan,31,POINT (-111.813 33.4457),33.4456525,-111.8130951
2495294,01/31/2022,02/01/2022,01/31/2022,"1716 N Temple St, Mesa, AZ, 85203",40,0.0,Self Reported (City Staff),2022,Jan,31,2022,Feb,01,2022,Jan,31,POINT (-111.81 33.4461),33.4461322,-111.8100794
2495954,01/31/2022,02/01/2022,01/31/2022,"2616 E Fox St, Mesa, AZ, 85213",40,0.0,Self Reported (City Staff),2022,Jan,31,2022,Feb,01,2022,Jan,31,POINT (-111.774 33.4362),33.4361819,-111.774425
2496468,01/31/2022,02/01/2022,01/31/2022,"N Mesa Riverview Dr, Mesa, AZ, 85201",10,0.0,Self Reported (City Staff),2022,Jan,31,2022,Feb,01,2022,Jan,31,POINT (-111.873 33.431),33.4310261,-111.8731157
2495716,01/31/2022,02/01/2022,01/31/2022,"1921 E McDowell Rd, Mesa, AZ, 85203",5,0.0,Self Reported (City Staff),2022,Jan,31,2022,Feb,01,2022,Jan,31,POINT (-111.789 33.4661),33.4661417,-111.7889831
2497099,01/31/2022,02/01/2022,02/01/2022,"605 W 6th Ave, Mesa, AZ, 85210",1,0.1,Mobile App (Public),2022,Jan,31,2022,Feb,01,2022,Feb,01,POINT (-111.844 33.4037),33.4037427,-111.8443225
2495301,01/31/2022,02/01/2022,01/31/2022,"1673 N Horne, Mesa, AZ, 85203",8,0.0,Self Reported (City Staff),2022,Jan,31,2022,Feb,01,2022,Jan,31,POINT (-111.813 33.4455),33.4455274,-111.8132501
2495078,01/31/2022,02/01/2022,01/31/2022,"2559 E Fox St, Mesa, AZ, 85213",20,0.0,Phone/Email (Public),2022,Jan,31,2022,Feb,01,2022,Jan,31,POINT (-111.775 33.4357),33.43573,-111.7755
2497313,02/01/2022,02/02/2022,02/01/2022,"934 N Loma Vista, Mesa, AZ, 85213",3,0.0,Self Reported (City Staff),2022,Feb,01,2022,Feb,02,2022,Feb,01,POINT (-111.763 33.4327),33.4327121,-111.7631729
2498774,02/01/2022,02/02/2022,02/01/2022,"Mesa, AZ, 85212",10,0.0,Self Reported (City Staff),2022,Feb,01,2022,Feb,02,2022,Feb,01,POINT (-111.598 33.3556),33.3556392,-111.5979391
2498857,02/01/2022,02/02/2022,02/01/2022,"Mesa, AZ, 85212",25,0.0,Self Reported (City Staff),2022,Feb,01,2022,Feb,02,2022,Feb,01,POINT (-111.594 33.3565),33.3565325,-111.5936277
2497823,02/01/2022,02/02/2022,02/01/2022,"640 E Brown Rd-Alley, Mesa, AZ, 85203",3,0.0,Self Reported (City Staff),2022,Feb,01,2022,Feb,02,2022,Feb,01,POINT (-111.816 33.4371),33.4371439,-111.8161187
2497280,02/01/2022,02/02/2022,02/01/2022,"3108 E Enrose Cir, Mesa, AZ, 85213",3,0.0,Self Reported (City Staff),2022,Feb,01,2022,Feb,02,2022,Feb,01,POINT (-111.762 33.4315),33.4314512,-111.7623981
2498257,02/01/2022,02/02/2022,02/01/2022,"3198 S Lindenwood Cir, Mesa, AZ, 85212",30,0.0,Mobile App (Public),2022,Feb,01,2022,Feb,02,2022,Feb,01,POINT (-111.595 33.3572),33.357177,-111.5954321
2499153,02/01/2022,02/02/2022,02/02/2022,"2150 W Main St, Mesa, AZ, 85201",6,0.2,Website (Public),2022,Feb,01,2022,Feb,02,2022,Feb,02,POINT (-111.879 33.4153),33.415316,-111.878559
2499227,02/01/2022,02/02/2022,02/02/2022,"3430 S Oxley, Mesa, AZ, 85212",1,0.1,Mobile App (Public),2022,Feb,01,2022,Feb,02,2022,Feb,02,POINT (-111.589 33.352),33.3520327,-111.588754
2497725,02/01/2022,02/02/2022,02/01/2022,"644 E Brown Rd-Alley, Mesa, AZ, 85203",4,0.0,Self Reported (City Staff),2022,Feb,01,2022,Feb,02,2022,Feb,01,POINT (-111.816 33.4371),33.4371105,-111.8162136
2499022,02/01/2022,02/02/2022,02/01/2022,"E McDowell Rd, Mesa, AZ, 85215",30,0.0,Self Reported (City Staff),2022,Feb,01,2022,Feb,02,2022,Feb,01,POINT (-111.732 33.4664),33.466426,-111.7316157
2498762,02/01/2022,02/02/2022,02/01/2022,0,2,0.0,Self Reported (City Staff),2022,Feb,01,2022,Feb,02,2022,Feb,01,POINT (-111.599 33.3557),33.355702,-111.5988415
2499160,02/01/2022,02/02/2022,02/02/2022,"2137 W Main St, Mesa, AZ, 85201",4,0.3,Website (Public),2022,Feb,01,2022,Feb,02,2022,Feb,02,POINT (-111.878 33.4147),33.4147127,-111.8783629
2498044,02/01/2022,02/02/2022,02/01/2022,"455 N Hall, Mesa, AZ, 85203",1,0.0,Self Reported (City Staff),2022,Feb,01,2022,Feb,02,2022,Feb,01,POINT (-111.793 33.424),33.4240325,-111.7926221
2497826,02/01/2022,02/02/2022,02/01/2022,"640 E Brown Rd-Alley, Mesa, AZ, 85203",4,0.0,Self Reported (City Staff),2022,Feb,01,2022,Feb,02,2022,Feb,01,POINT (-111.816 33.4371),33.4371484,-111.8161444
2497950,02/01/2022,02/02/2022,02/01/2022,"640 E Brown Rd-Alley, Mesa, AZ, 85203",20,0.0,Self Reported (City Staff),2022,Feb,01,2022,Feb,02,2022,Feb,01,POINT (-111.816 33.4371),33.4370537,-111.8157506
2498365,02/01/2022,02/02/2022,02/02/2022,"1750 N Country Club Dr, Mesa, AZ, 85201",100,0.2,Phone/Email (Public),2022,Feb,01,2022,Feb,02,2022,Feb,02,POINT (-111.841 33.4475),33.44754,-111.841275
2499061,02/01/2022,02/02/2022,02/02/2022,"11007 E Flossmoor Cir, Mesa, AZ, 85208",1,0.1,Website (Public),2022,Feb,01,2022,Feb,02,2022,Feb,02,POINT (-111.594 33.3935),33.3935186,-111.5935796
2497729,02/01/2022,02/02/2022,02/01/2022,"640 E Brown Rd-Alley, Mesa, AZ, 85203",10,0.0,Self Reported (City Staff),2022,Feb,01,2022,Feb,02,2022,Feb,01,POINT (-111.816 33.4371),33.4371475,-111.8161358
2498021,02/01/2022,02/02/2022,02/01/2022,"606 N Oracle, Mesa, AZ, 85203",1,0.0,Self Reported (City Staff),2022,Feb,01,2022,Feb,02,2022,Feb,01,POINT (-111.794 33.4263),33.4262552,-111.7942891
2499187,02/01/2022,02/02/2022,02/02/2022,"AZ-101-LOOP N, Mesa, AZ, 85201",50,0.2,Self Reported (City Staff),2022,Feb,01,2022,Feb,02,2022,Feb,02,POINT (-111.891 33.4363),33.436274,-111.8909542
2497835,02/01/2022,02/02/2022,02/01/2022,"642 E Brown Rd-Alley, Mesa, AZ, 85203",1,0.0,Self Reported (City Staff),2022,Feb,01,2022,Feb,02,2022,Feb,01,POINT (-111.816 33.4372),33.4371544,-111.8161658
2499082,02/01/2022,02/02/2022,02/02/2022,"1519 N Alma School Rd, Mesa, AZ, 85201",20,0.2,Mobile App (Public),2022,Feb,01,2022,Feb,02,2022,Feb,02,POINT (-111.856 33.4421),33.4420603,-111.8561904
2498281,02/01/2022,02/02/2022,02/01/2022,"Mesa, AZ, 85212",30,0.0,Mobile App (Public),2022,Feb,01,2022,Feb,02,2022,Feb,01,POINT (-111.594 33.3573),33.3573427,-111.593818
2497310,02/01/2022,02/02/2022,02/01/2022,"Mesa, AZ, 85213",3,0.0,Self Reported (City Staff),2022,Feb,01,2022,Feb,02,2022,Feb,01,POINT (-111.763 33.4326),33.4326363,-111.7631555
2497816,02/01/2022,02/02/2022,02/01/2022,"642 E Brown Rd-Alley, Mesa, AZ, 85203",8,0.0,Self Reported (City Staff),2022,Feb,01,2022,Feb,02,2022,Feb,01,POINT (-111.816 33.4372),33.437156,-111.816184
2499190,02/01/2022,02/02/2022,02/02/2022,"S Lindsay Rd, Mesa, AZ, 85204",1,0.2,Self Reported (City Staff),2022,Feb,01,2022,Feb,02,2022,Feb,02,POINT (-111.771 33.4008),33.4007819,-111.7710589
2499903,02/02/2022,02/03/2022,02/02/2022,"950 S Fontana, Mesa, AZ, 85204",2,0.0,Self Reported (City Staff),2022,Feb,02,2022,Feb,03,2022,Feb,02,POINT (-111.769 33.3974),33.397423,-111.7691464
2500515,02/02/2022,02/03/2022,02/02/2022,"410 S El Dorado Rd, Mesa, AZ, 85202",6,0.0,Self Reported (City Staff),2022,Feb,02,2022,Feb,03,2022,Feb,02,POINT (-111.887 33.4074),33.4074068,-111.887281
2499620,02/02/2022,02/03/2022,02/02/2022,"11205 E Persimmon Ave, Mesa, AZ, 85212",1,0.0,Self Reported (City Staff),2022,Feb,02,2022,Feb,03,2022,Feb,02,POINT (-111.592 33.3523),33.3523479,-111.5922928
2500643,02/02/2022,02/03/2022,02/02/2022,"210 S Mesa Dr, Mesa, AZ, 85210",60,0.0,Mobile App (Public),2022,Feb,02,2022,Feb,03,2022,Feb,02,POINT (-111.824 33.4104),33.4103894,-111.8236542
2500561,02/02/2022,02/03/2022,02/02/2022,"8005 E Casper St, Mesa, AZ, 85207",60,0.0,Website (Public),2022,Feb,02,2022,Feb,03,2022,Feb,02,POINT (-111.658 33.4245),33.4244758,-111.6584023
2499772,02/02/2022,02/03/2022,02/02/2022,"E Baseline Rd, Mesa, AZ, 85209",2,0.0,Self Reported (City Staff),2022,Feb,02,2022,Feb,03,2022,Feb,02,POINT (-111.615 33.3791),33.3790631,-111.6148569
2501092,02/02/2022,02/03/2022,02/02/2022,"645 N Overland, Mesa, AZ, 85207",1,0.0,Self Reported (City Staff),2022,Feb,02,2022,Feb,03,2022,Feb,02,POINT (-111.659 33.4273),33.42725,-111.658827
2499618,02/02/2022,02/03/2022,02/02/2022,"S Emery, Mesa, AZ, 85212",1,0.0,Self Reported (City Staff),2022,Feb,02,2022,Feb,03,2022,Feb,02,POINT (-111.592 33.3523),33.3522664,-111.5923549
2501159,02/02/2022,02/03/2022,02/03/2022,"135 S Mesa Dr, Mesa, AZ, 85210",60,0.1,Mobile App (Public),2022,Feb,02,2022,Feb,03,2022,Feb,03,POINT (-111.822 33.4116),33.4116492,-111.8224606
2500590,02/02/2022,02/03/2022,02/02/2022,"410 S El Dorado, Mesa, AZ, 85202",60,0.0,Self Reported (City Staff),2022,Feb,02,2022,Feb,03,2022,Feb,02,POINT (-111.888 33.407),33.4070226,-111.8878428
2499717,02/02/2022,02/03/2022,02/02/2022,"E Baseline Rd, Mesa, AZ, 85209",2,0.0,Self Reported (City Staff),2022,Feb,02,2022,Feb,03,2022,Feb,02,POINT (-111.612 33.3791),33.3790501,-111.6124229
2501099,02/02/2022,02/03/2022,02/02/2022,"639 N Overland, Mesa, AZ, 85207",1,0.0,Self Reported (City Staff),2022,Feb,02,2022,Feb,03,2022,Feb,02,POINT (-111.659 33.427),33.4270433,-111.6588071
2500407,02/02/2022,02/03/2022,02/02/2022,"2130 W Main St, Mesa, AZ, 85201",4,0.0,Self Reported (City Staff),2022,Feb,02,2022,Feb,03,2022,Feb,02,POINT (-111.878 33.415),33.4149854,-111.8781105
2500498,02/02/2022,02/03/2022,02/02/2022,"2665 E Broadway Rd, Mesa, AZ, 85202",4,0.0,Self Reported (City Staff),2022,Feb,02,2022,Feb,03,2022,Feb,02,POINT (-111.888 33.4074),33.4073729,-111.8879362
2499694,02/02/2022,02/03/2022,02/02/2022,"E Baseline Rd, Mesa, AZ, 85209",2,0.0,Self Reported (City Staff),2022,Feb,02,2022,Feb,03,2022,Feb,02,POINT (-111.61 33.379),33.3790158,-111.6101039
2500593,02/02/2022,02/03/2022,02/02/2022,"2665 E Broadway Rd, Mesa, AZ, 85202",1,0.0,Self Reported (City Staff),2022,Feb,02,2022,Feb,03,2022,Feb,02,POINT (-111.888 33.4072),33.4072304,-111.8879442
2502312,02/03/2022,02/07/2022,02/03/2022,"1303 W Pueblo Ave, Mesa, AZ, 85202",1,0.0,Self Reported (City Staff),2022,Feb,03,2022,Feb,07,2022,Feb,03,POINT (-111.859 33.4004),33.4004331,-111.8590533
2502314,02/03/2022,02/07/2022,02/03/2022,"1303 W Pueblo Ave, Mesa, AZ, 85202",5,0.0,Self Reported (City Staff),2022,Feb,03,2022,Feb,07,2022,Feb,03,POINT (-111.859 33.4005),33.4005017,-111.8590195
2502053,02/03/2022,02/07/2022,02/03/2022,"1888 W 8th Ave, Mesa, AZ, 85202",1,0.0,Self Reported (City Staff),2022,Feb,03,2022,Feb,07,2022,Feb,03,POINT (-111.874 33.4004),33.4004003,-111.8741543
2501943,02/03/2022,02/07/2022,02/03/2022,"1865 W 8th Ave, Mesa, AZ, 85202",10,0.0,Self Reported (City Staff),2022,Feb,03,2022,Feb,07,2022,Feb,03,POINT (-111.873 33.4002),33.4001966,-111.8728389
2502129,02/03/2022,02/07/2022,02/03/2022,"848 S Alma School Rd, Mesa, AZ, 85210",8,0.0,Phone/Email (Public),2022,Feb,03,2022,Feb,07,2022,Feb,03,POINT (-111.859 33.3995),33.399511,-111.858644
2501945,02/03/2022,02/07/2022,02/03/2022,"1865 W 8th Ave, Mesa, AZ, 85202",1,0.0,Self Reported (City Staff),2022,Feb,03,2022,Feb,07,2022,Feb,03,POINT (-111.873 33.4002),33.4002256,-111.872844
2502318,02/03/2022,02/07/2022,02/03/2022,"1303 W Pueblo Ave, Mesa, AZ, 85202",6,0.0,Self Reported (City Staff),2022,Feb,03,2022,Feb,07,2022,Feb,03,POINT (-111.859 33.4004),33.400431,-111.8591319
2502626,02/03/2022,02/07/2022,02/07/2022,"782 N Roca, Mesa, AZ, 85213",1,0.1,Website (Public),2022,Feb,03,2022,Feb,07,2022,Feb,07,POINT (-111.768 33.4297),33.4297457,-111.7681673
2502058,02/03/2022,02/07/2022,02/03/2022,"787 S Dobson Rd, Mesa, AZ, 85202",1,0.0,Self Reported (City Staff),2022,Feb,03,2022,Feb,07,2022,Feb,03,POINT (-111.874 33.4004),33.4004364,-111.8744545
2502846,02/03/2022,02/07/2022,02/03/2022,"640 E Broadway Rd, Mesa, AZ, 85204",25,0.0,Website (Public),2022,Feb,03,2022,Feb,07,2022,Feb,03,POINT (-111.817 33.4083),33.40829,-111.817039
2502056,02/03/2022,02/07/2022,02/03/2022,"1894 W 8th Ave, Mesa, AZ, 85202",1,0.0,Self Reported (City Staff),2022,Feb,03,2022,Feb,07,2022,Feb,03,POINT (-111.874 33.4004),33.4004054,-111.8743701
2504536,02/04/2022,02/07/2022,02/07/2022,0,1,0.1,Website (Public),2022,Feb,04,2022,Feb,07,2022,Feb,07,POINT (-111.642 33.4467),33.4466904,-111.6416126
2507621,02/07/2022,02/08/2022,02/07/2022,"1258 W University Dr, Mesa, AZ, 85201",1,0.0,Self Reported (City Staff),2022,Feb,07,2022,Feb,08,2022,Feb,07,POINT (-111.858 33.4222),33.4221641,-111.858341
2507297,02/07/2022,02/08/2022,02/07/2022,"1559 N Country Club Dr, Mesa, AZ, 85201",1,0.0,Self Reported (City Staff),2022,Feb,07,2022,Feb,08,2022,Feb,07,POINT (-111.839 33.4441),33.4441019,-111.8391766
2506496,02/07/2022,02/08/2022,02/07/2022,"401 E 6th St, Mesa, AZ, 85203",2,0.0,Website (Public),2022,Feb,07,2022,Feb,08,2022,Feb,07,POINT (-111.823 33.426),33.4259615,-111.8227959
2506876,02/07/2022,02/08/2022,02/07/2022,"628 N Center St, Mesa, AZ, 85201",2,0.0,Self Reported (City Staff),2022,Feb,07,2022,Feb,08,2022,Feb,07,POINT (-111.831 33.4265),33.4264868,-111.8314793
2507497,02/07/2022,02/08/2022,02/07/2022,"N Rico Cir, Mesa, AZ, 85213",1,0.0,Mobile App (Public),2022,Feb,07,2022,Feb,08,2022,Feb,07,POINT (-111.768 33.4341),33.434058,-111.7676621
2506840,02/07/2022,02/08/2022,02/07/2022,0,5,0.0,Self Reported (City Staff),2022,Feb,07,2022,Feb,08,2022,Feb,07,POINT (-111.831 33.426),33.4260298,-111.8312827
2507647,02/07/2022,02/08/2022,02/07/2022,"1287 W University Dr, Mesa, AZ, 85201",6,0.0,Self Reported (City Staff),2022,Feb,07,2022,Feb,08,2022,Feb,07,POINT (-111.859 33.422),33.4220131,-111.8585068
2507608,02/07/2022,02/08/2022,02/07/2022,"1237 W University Dr, Mesa, AZ, 85201",1,0.0,Self Reported (City Staff),2022,Feb,07,2022,Feb,08,2022,Feb,07,POINT (-111.857 33.422),33.4219872,-111.8573948
2508061,02/07/2022,02/08/2022,02/08/2022,"516 E 11th Ave, Mesa, AZ, 85204",60,0.1,Phone/Email (Public),2022,Feb,07,2022,Feb,08,2022,Feb,08,POINT (-111.82 33.3954),33.395401,-111.820273
2507243,02/07/2022,02/08/2022,02/07/2022,"565 S Dobson Rd, Mesa, AZ, 85202",2,0.0,Self Reported (City Staff),2022,Feb,07,2022,Feb,08,2022,Feb,07,POINT (-111.874 33.4043),33.4042556,-111.8744572
2506844,02/07/2022,02/08/2022,02/07/2022,"599 N Center St, Mesa, AZ, 85201",2,0.0,Self Reported (City Staff),2022,Feb,07,2022,Feb,08,2022,Feb,07,POINT (-111.831 33.426),33.4259754,-111.8312984
2507900,02/07/2022,02/08/2022,02/07/2022,"2936 E Encanto St, Mesa, AZ, 85213",1,0.0,Self Reported (City Staff),2022,Feb,07,2022,Feb,08,2022,Feb,07,POINT (-111.768 33.4341),33.4340608,-111.7676014
2506900,02/07/2022,02/08/2022,02/07/2022,"5 W 7th St, Mesa, AZ, 85201",2,0.0,Self Reported (City Staff),2022,Feb,07,2022,Feb,08,2022,Feb,07,POINT (-111.831 33.4275),33.4274744,-111.8314939
2507594,02/07/2022,02/08/2022,02/07/2022,"1243 W University Dr, Mesa, AZ, 85201",2,0.0,Self Reported (City Staff),2022,Feb,07,2022,Feb,08,2022,Feb,07,POINT (-111.858 33.422),33.4220234,-111.8575914
2506847,02/07/2022,02/08/2022,02/07/2022,"601 N Center St, Mesa, AZ, 85201",2,0.0,Self Reported (City Staff),2022,Feb,07,2022,Feb,08,2022,Feb,07,POINT (-111.831 33.426),33.4260082,-111.831289
2506982,02/07/2022,02/08/2022,02/07/2022,"640 E Brown Rd-Alley, Mesa, AZ, 85203",1,0.0,Self Reported (City Staff),2022,Feb,07,2022,Feb,08,2022,Feb,07,POINT (-111.816 33.4372),33.4371517,-111.816058
2506981,02/07/2022,02/08/2022,02/07/2022,"640 E Brown Rd-Alley, Mesa, AZ, 85203",2,0.0,Self Reported (City Staff),2022,Feb,07,2022,Feb,08,2022,Feb,07,POINT (-111.816 33.4372),33.4371562,-111.8161419
2507695,02/07/2022,02/08/2022,02/07/2022,"318 N Alma School Rd, Mesa, AZ, 85201",8,0.0,Self Reported (City Staff),2022,Feb,07,2022,Feb,08,2022,Feb,07,POINT (-111.857 33.4204),33.4203842,-111.8565854
2507965,02/07/2022,02/08/2022,02/07/2022,"2601 E Enrose St, Mesa, AZ, 85213",8,0.0,Self Reported (City Staff),2022,Feb,07,2022,Feb,08,2022,Feb,07,POINT (-111.775 33.4307),33.430748,-111.7751887
2506629,02/07/2022,02/08/2022,02/07/2022,"408 E 6th St, Mesa, AZ, 85203",2,0.0,Self Reported (City Staff),2022,Feb,07,2022,Feb,08,2022,Feb,07,POINT (-111.823 33.426),33.4260451,-111.8226381
2507967,02/07/2022,02/08/2022,02/07/2022,"2601 E Enrose St, Mesa, AZ, 85213",4,0.0,Self Reported (City Staff),2022,Feb,07,2022,Feb,08,2022,Feb,07,POINT (-111.775 33.4308),33.4308475,-111.7752093
2506871,02/07/2022,02/08/2022,02/07/2022,"606 N Center St, Mesa, AZ, 85201",4,0.0,Self Reported (City Staff),2022,Feb,07,2022,Feb,08,2022,Feb,07,POINT (-111.832 33.4264),33.4263909,-111.8315004
2506737,02/07/2022,02/08/2022,02/07/2022,"24 E Main St, Mesa, AZ, 85201",5,0.0,Self Reported (City Staff),2022,Feb,07,2022,Feb,08,2022,Feb,07,POINT (-111.83 33.4156),33.41562,-111.8302538
2510245,02/08/2022,02/09/2022,02/09/2022,"E Pratt Ave, Mesa, AZ, 85212",180,0.1,Website (Public),2022,Feb,08,2022,Feb,09,2022,Feb,09,POINT (-111.592 33.3543),33.3543336,-111.5924692
2508755,02/08/2022,02/09/2022,02/08/2022,"1100 S Hobson, Mesa, AZ, 85204",1,0.0,Self Reported (City Staff),2022,Feb,08,2022,Feb,09,2022,Feb,08,POINT (-111.819 33.3949),33.3948995,-111.818615
2509411,02/08/2022,02/09/2022,02/08/2022,"1256 S Country Club Dr, Mesa, AZ, 85210",1,0.0,Self Reported (City Staff),2022,Feb,08,2022,Feb,09,2022,Feb,08,POINT (-111.841 33.3909),33.3909157,-111.8409305
2509191,02/08/2022,02/09/2022,02/08/2022,"1157 E 7th Pl, Mesa, AZ, 85203",2,0.0,Self Reported (City Staff),2022,Feb,08,2022,Feb,09,2022,Feb,08,POINT (-111.805 33.4284),33.4284303,-111.805437
2508732,02/08/2022,02/09/2022,02/08/2022,"1099 S Hobson, Mesa, AZ, 85204",1,0.0,Self Reported (City Staff),2022,Feb,08,2022,Feb,09,2022,Feb,08,POINT (-111.819 33.395),33.3950031,-111.818538
2509767,02/08/2022,02/09/2022,02/08/2022,"1350 W Southern Ave, Mesa, AZ, 85202",16,0.0,Self Reported (City Staff),2022,Feb,08,2022,Feb,09,2022,Feb,08,POINT (-111.861 33.3942),33.3942157,-111.8605605
2510006,02/08/2022,02/09/2022,02/09/2022,"2258 W Concho Cir, Mesa, AZ, 85202",1,0.3,Phone/Email (Public),2022,Feb,08,2022,Feb,09,2022,Feb,09,POINT (-111.881 33.4047),33.404659,-111.880842
2509207,02/08/2022,02/09/2022,02/08/2022,"556 N Mesa Dr, Mesa, AZ, 85201",6,0.0,Mobile App (Public),2022,Feb,08,2022,Feb,09,2022,Feb,08,POINT (-111.823 33.4258),33.4257858,-111.8228612
2509416,02/08/2022,02/09/2022,02/08/2022,"1256 S Country Club Dr, Mesa, AZ, 85210",1,0.0,Self Reported (City Staff),2022,Feb,08,2022,Feb,09,2022,Feb,08,POINT (-111.841 33.391),33.3909561,-111.8409431
2509988,02/08/2022,02/09/2022,02/08/2022,"2628 W Birchwood Cir, Mesa, AZ, 85202",12,0.0,Self Reported (City Staff),2022,Feb,08,2022,Feb,09,2022,Feb,08,POINT (-111.889 33.41),33.4100305,-111.888569
2508644,02/08/2022,02/09/2022,02/08/2022,"531 E 11th Ave, Mesa, AZ, 85204",1,0.0,Self Reported (City Staff),2022,Feb,08,2022,Feb,09,2022,Feb,08,POINT (-111.821 33.395),33.3950142,-111.8206443
2509748,02/08/2022,02/09/2022,02/08/2022,"1350 W Southern Ave, Mesa, AZ, 85202",4,0.0,Self Reported (City Staff),2022,Feb,08,2022,Feb,09,2022,Feb,08,POINT (-111.861 33.3941),33.3940677,-111.8605494
2509227,02/08/2022,02/09/2022,02/08/2022,"628 N Stapley Dr, Mesa, AZ, 85203",1,0.0,Self Reported (City Staff),2022,Feb,08,2022,Feb,09,2022,Feb,08,POINT (-111.805 33.4268),33.4268399,-111.8053126
2510334,02/08/2022,02/09/2022,02/09/2022,"4148 E Pueblo Ave, Mesa, AZ, 85206",1,0.2,Website (Public),2022,Feb,08,2022,Feb,09,2022,Feb,09,POINT (-111.742 33.4007),33.4006631,-111.7417449
2509839,02/08/2022,02/09/2022,02/08/2022,"1346 W Southern Ave, Mesa, AZ, 85202",12,0.0,Self Reported (City Staff),2022,Feb,08,2022,Feb,09,2022,Feb,08,POINT (-111.861 33.3935),33.3934624,-111.8605687
2509892,02/08/2022,02/09/2022,02/08/2022,"1799 W Emelita Ave, Mesa, AZ, 85202",1,0.0,Self Reported (City Staff),2022,Feb,08,2022,Feb,09,2022,Feb,08,POINT (-111.87 33.3984),33.3983534,-111.8697907
2508586,02/08/2022,02/09/2022,02/08/2022,"485 E 11th Ave, Mesa, AZ, 85204",6,0.0,Self Reported (City Staff),2022,Feb,08,2022,Feb,09,2022,Feb,08,POINT (-111.821 33.3951),33.39514,-111.821339
2508881,02/08/2022,02/09/2022,02/08/2022,"1915 N Robson-Alley, Mesa, AZ, 85201",1,0.0,Self Reported (City Staff),2022,Feb,08,2022,Feb,09,2022,Feb,08,POINT (-111.837 33.4514),33.4513666,-111.8369691
2510340,02/08/2022,02/09/2022,02/09/2022,"1940 S Val Vista Dr, Mesa, AZ, 85204",2,0.2,Website (Public),2022,Feb,08,2022,Feb,09,2022,Feb,09,POINT (-111.754 33.3797),33.3797082,-111.7541099
2509232,02/08/2022,02/09/2022,02/08/2022,"401 W Southern Ave, Mesa, AZ, 85210",100,0.0,Phone/Email (Public),2022,Feb,08,2022,Feb,09,2022,Feb,08,POINT (-111.84 33.3932),33.39323,-111.8401899
2508980,02/08/2022,02/09/2022,02/08/2022,"409 E Crescent Ave, Mesa, AZ, 85204",1,0.0,Self Reported (City Staff),2022,Feb,08,2022,Feb,09,2022,Feb,08,POINT (-111.823 33.4065),33.4064654,-111.8229077
2511730,02/09/2022,02/10/2022,02/09/2022,"644 E Brown Rd-Alley, Mesa, AZ, 85203",1,0.0,Self Reported (City Staff),2022,Feb,09,2022,Feb,10,2022,Feb,09,POINT (-111.816 33.4371),33.4371264,-111.8161895
2511363,02/09/2022,02/10/2022,02/09/2022,"1263 S Vineyard, Mesa, AZ, 85210",1,0.0,Self Reported (City Staff),2022,Feb,09,2022,Feb,10,2022,Feb,09,POINT (-111.843 33.3915),33.3914663,-111.8426227
2512128,02/09/2022,02/10/2022,02/09/2022,"24 N Phyllis St, Mesa, AZ, 85201",1,0.0,Self Reported (City Staff),2022,Feb,09,2022,Feb,10,2022,Feb,09,POINT (-111.883 33.416),33.4160042,-111.8831143
2511327,02/09/2022,02/10/2022,02/09/2022,"1300 S Country Club Dr, Mesa, AZ, 85210",1,0.0,Self Reported (City Staff),2022,Feb,09,2022,Feb,10,2022,Feb,09,POINT (-111.841 33.3919),33.3918776,-111.8410224
2512098,02/09/2022,02/10/2022,02/09/2022,"2434 W Main St, Mesa, AZ, 85201",20,0.0,Self Reported (City Staff),2022,Feb,09,2022,Feb,10,2022,Feb,09,POINT (-111.884 33.415),33.4150118,-111.8835068
2511274,02/09/2022,02/10/2022,02/09/2022,"644 E Brown Rd-Alley, Mesa, AZ, 85203",10,0.0,Mobile App (Public),2022,Feb,09,2022,Feb,10,2022,Feb,09,POINT (-111.816 33.4366),33.4366473,-111.8162086
2512100,02/09/2022,02/10/2022,02/09/2022,"2406 W Main St, Mesa, AZ, 85201",1,0.0,Self Reported (City Staff),2022,Feb,09,2022,Feb,10,2022,Feb,09,POINT (-111.884 33.415),33.4149533,-111.8841447
2510740,02/09/2022,02/10/2022,02/09/2022,"S Hawes Rd, Mesa, AZ, 85212",12,0.0,Website (Public),2022,Feb,09,2022,Feb,10,2022,Feb,09,POINT (-111.653 33.3582),33.3582005,-111.6533768
2511035,02/09/2022,02/10/2022,02/09/2022,"S Hawes Rd, Mesa, AZ, 85212",1,0.0,Self Reported (City Staff),2022,Feb,09,2022,Feb,10,2022,Feb,09,POINT (-111.653 33.3581),33.3581024,-111.6534121
2511463,02/09/2022,02/10/2022,02/09/2022,"2259 W Broadway Rd, Mesa, AZ, 85202",6,0.0,Self Reported (City Staff),2022,Feb,09,2022,Feb,10,2022,Feb,09,POINT (-111.881 33.4071),33.4071181,-111.8809485
2511380,02/09/2022,02/10/2022,02/09/2022,"1280 S Country Club Dr, Mesa, AZ, 85210",2,0.0,Self Reported (City Staff),2022,Feb,09,2022,Feb,10,2022,Feb,09,POINT (-111.843 33.3921),33.3921178,-111.8426363
2512103,02/09/2022,02/10/2022,02/09/2022,"2406 W Main St, Mesa, AZ, 85201",150,0.0,Self Reported (City Staff),2022,Feb,09,2022,Feb,10,2022,Feb,09,POINT (-111.884 33.4152),33.4152136,-111.8839425
2512842,02/10/2022,02/14/2022,02/10/2022,"1101 S Longmore, Mesa, AZ, 85202",10,0.0,Self Reported (City Staff),2022,Feb,10,2022,Feb,14,2022,Feb,10,POINT (-111.864 33.3947),33.394698,-111.8640373
2512720,02/10/2022,02/14/2022,02/10/2022,"1240 W Southern Ave, Mesa, AZ, 85202",1,0.0,Self Reported (City Staff),2022,Feb,10,2022,Feb,14,2022,Feb,10,POINT (-111.858 33.3931),33.3931168,-111.8584333
2513732,02/10/2022,02/14/2022,02/14/2022,"Hohokam Village, Mesa, AZ, 85201",140,0.2,Phone/Email (Public),2022,Feb,10,2022,Feb,14,2022,Feb,14,POINT (-111.824 33.4367),33.4367306,-111.8235576
2512795,02/10/2022,02/14/2022,02/10/2022,"1009 S Longmore, Mesa, AZ, 85202",1,0.0,Self Reported (City Staff),2022,Feb,10,2022,Feb,14,2022,Feb,10,POINT (-111.866 33.3964),33.3963929,-111.8656896
2513340,02/10/2022,02/14/2022,02/10/2022,"808 N Miller St, Mesa, AZ, 85203",120,0.0,Phone/Email (Public),2022,Feb,10,2022,Feb,14,2022,Feb,10,POINT (-111.81 33.4299),33.429853,-111.809869
2512997,02/10/2022,02/14/2022,02/10/2022,"1651 E Broadway Rd, Mesa, AZ, 85204",8,0.0,Self Reported (City Staff),2022,Feb,10,2022,Feb,14,2022,Feb,10,POINT (-111.795 33.4081),33.4081074,-111.7952362
2512724,02/10/2022,02/14/2022,02/10/2022,"1240 W Southern Ave, Mesa, AZ, 85202",2,0.0,Self Reported (City Staff),2022,Feb,10,2022,Feb,14,2022,Feb,10,POINT (-111.858 33.3934),33.393419,-111.85811
2513854,02/10/2022,02/14/2022,02/14/2022,"50 E 6th St, Mesa, AZ, 85201",6,0.2,Mobile App (Public),2022,Feb,10,2022,Feb,14,2022,Feb,14,POINT (-111.83 33.4259),33.4259227,-111.8296592
2512751,02/10/2022,02/14/2022,02/10/2022,"W Southern Ave, Mesa, AZ, 85202",1,0.0,Self Reported (City Staff),2022,Feb,10,2022,Feb,14,2022,Feb,10,POINT (-111.86 33.3931),33.3931491,-111.8600272
2513050,02/10/2022,02/14/2022,02/10/2022,"46 E Broadway Rd, Mesa, AZ, 85210",1,0.0,Self Reported (City Staff),2022,Feb,10,2022,Feb,14,2022,Feb,10,POINT (-111.83 33.4079),33.4078754,-111.8297874
2512993,02/10/2022,02/14/2022,02/10/2022,"1621 E Main St, Mesa, AZ, 85203",4,0.0,Mobile App (Public),2022,Feb,10,2022,Feb,14,2022,Feb,10,POINT (-111.796 33.4151),33.4151066,-111.7957086
2515639,02/11/2022,02/14/2022,02/14/2022,"802 S Coleman, Mesa, AZ, 85210",4,0.2,Mobile App (Public),2022,Feb,11,2022,Feb,14,2022,Feb,14,POINT (-111.833 33.4005),33.4004763,-111.8332581
2516210,02/11/2022,02/14/2022,02/14/2022,"E Guadalupe Rd, Mesa, AZ, 85212",10,0.1,Mobile App (Public),2022,Feb,11,2022,Feb,14,2022,Feb,14,POINT (-111.644 33.3646),33.3646475,-111.644077
2516679,02/12/2022,02/14/2022,02/14/2022,"10331 E Southern Ave, Mesa, AZ, 85209",25,0.1,Website (Public),2022,Feb,12,2022,Feb,14,2022,Feb,14,POINT (-111.608 33.3931),33.3930931,-111.6080368
2516910,02/12/2022,02/14/2022,02/14/2022,"1518 N Val Vista Dr, Mesa, AZ, 85213",3,0.1,Website (Public),2022,Feb,12,2022,Feb,14,2022,Feb,14,POINT (-111.754 33.4434),33.4433892,-111.7536646
2518430,02/14/2022,02/15/2022,02/14/2022,"907 S Coleman, Mesa, AZ, 85210",4,0.0,Self Reported (City Staff),2022,Feb,14,2022,Feb,15,2022,Feb,14,POINT (-111.833 33.3986),33.3986304,-111.8331177
2518616,02/14/2022,02/15/2022,02/14/2022,"530 N MacDonald, Mesa, AZ, 85201",15,0.0,Self Reported (City Staff),2022,Feb,14,2022,Feb,15,2022,Feb,14,POINT (-111.834 33.425),33.4249867,-111.8342777
2518987,02/14/2022,02/15/2022,02/14/2022,"170 W 3rd Ave, Mesa, AZ, 85210",4,0.0,Self Reported (City Staff),2022,Feb,14,2022,Feb,15,2022,Feb,14,POINT (-111.836 33.409),33.4089851,-111.8361794
2518443,02/14/2022,02/15/2022,02/14/2022,"4124 E Main St, Mesa, AZ, 85205",5,0.0,Self Reported (City Staff),2022,Feb,14,2022,Feb,15,2022,Feb,14,POINT (-111.742 33.4156),33.4155666,-111.7421447
2519476,02/14/2022,02/15/2022,02/15/2022,"595 S Date, Mesa, AZ, 85210",30,0.1,Mobile App (Public),2022,Feb,14,2022,Feb,15,2022,Feb,15,POINT (-111.844 33.4042),33.4042296,-111.8442091
2519110,02/14/2022,02/15/2022,02/14/2022,"172 W 3rd Ave, Mesa, AZ, 85210",4,0.0,Self Reported (City Staff),2022,Feb,14,2022,Feb,15,2022,Feb,14,POINT (-111.836 33.4089),33.4089369,-111.8362785
2518081,02/14/2022,02/15/2022,02/14/2022,"Hohokam Village, Mesa, AZ, 85201",140,0.0,Self Reported (City Staff),2022,Feb,14,2022,Feb,15,2022,Feb,14,POINT (-111.825 33.4366),33.4365972,-111.825037
2519016,02/14/2022,02/15/2022,02/14/2022,"534 N Robson, Mesa, AZ, 85201",8,0.0,Self Reported (City Staff),2022,Feb,14,2022,Feb,15,2022,Feb,14,POINT (-111.838 33.4251),33.425135,-111.8376846
2518425,02/14/2022,02/15/2022,02/14/2022,"751 S Grand, Mesa, AZ, 85210",5,0.0,Self Reported (City Staff),2022,Feb,14,2022,Feb,15,2022,Feb,14,POINT (-111.835 33.401),33.4010193,-111.8351649
2519237,02/14/2022,02/15/2022,02/14/2022,"906 N Pasadena, Mesa, AZ, 85201",6,0.0,Self Reported (City Staff),2022,Feb,14,2022,Feb,15,2022,Feb,14,POINT (-111.827 33.433),33.4329769,-111.8273056
2518645,02/14/2022,02/15/2022,02/14/2022,"48 E 6th St, Mesa, AZ, 85201",20,0.0,Self Reported (City Staff),2022,Feb,14,2022,Feb,15,2022,Feb,14,POINT (-111.83 33.426),33.4260307,-111.8297189
2519258,02/14/2022,02/15/2022,02/14/2022,"160 E 9th Pl, Mesa, AZ, 85201",5,0.0,Self Reported (City Staff),2022,Feb,14,2022,Feb,15,2022,Feb,14,POINT (-111.828 33.4324),33.4324455,-111.828021
2519031,02/14/2022,02/15/2022,02/14/2022,"534 N Robson, Mesa, AZ, 85201",32,0.0,Self Reported (City Staff),2022,Feb,14,2022,Feb,15,2022,Feb,14,POINT (-111.838 33.4251),33.4251326,-111.837509
2519225,02/14/2022,02/15/2022,02/14/2022,"1165 N Pasadena, Mesa, AZ, 85201",20,0.0,Self Reported (City Staff),2022,Feb,14,2022,Feb,15,2022,Feb,14,POINT (-111.827 33.4347),33.4346973,-111.826878
2519023,02/14/2022,02/15/2022,02/14/2022,"348 W 6th St, Mesa, AZ, 85201",20,0.0,Self Reported (City Staff),2022,Feb,14,2022,Feb,15,2022,Feb,14,POINT (-111.839 33.4261),33.4260997,-111.8392944
2518902,02/14/2022,02/15/2022,02/14/2022,"644 N Center St, Mesa, AZ, 85201",15,0.0,Self Reported (City Staff),2022,Feb,14,2022,Feb,15,2022,Feb,14,POINT (-111.832 33.4272),33.4272263,-111.8315573
2518411,02/14/2022,02/15/2022,02/14/2022,"4136 E Main St, Mesa, AZ, 85205",3,0.0,Self Reported (City Staff),2022,Feb,14,2022,Feb,15,2022,Feb,14,POINT (-111.742 33.4156),33.4155726,-111.7419368
2519024,02/14/2022,02/15/2022,02/14/2022,"348 W 6th St, Mesa, AZ, 85201",6,0.0,Self Reported (City Staff),2022,Feb,14,2022,Feb,15,2022,Feb,14,POINT (-111.839 33.4261),33.4260803,-111.8393036
2518573,02/14/2022,02/15/2022,02/14/2022,"54 E 6th St, Mesa, AZ, 85201",5,0.0,Self Reported (City Staff),2022,Feb,14,2022,Feb,15,2022,Feb,14,POINT (-111.829 33.4259),33.4259354,-111.8294511
2518558,02/14/2022,02/15/2022,02/14/2022,"534 N Macdonald, Mesa, AZ, 85201",4,0.0,Self Reported (City Staff),2022,Feb,14,2022,Feb,15,2022,Feb,14,POINT (-111.834 33.425),33.4249947,-111.8343647
2518930,02/14/2022,02/15/2022,02/14/2022,"4122 E Main St, Mesa, AZ, 85205",20,0.0,Self Reported (City Staff),2022,Feb,14,2022,Feb,15,2022,Feb,14,POINT (-111.742 33.4156),33.4155525,-111.7421833
2518145,02/14/2022,02/15/2022,02/14/2022,"544 N Grand, Mesa, AZ, 85201",5,0.0,Self Reported (City Staff),2022,Feb,14,2022,Feb,15,2022,Feb,14,POINT (-111.836 33.4254),33.4253838,-111.8359047
2519165,02/14/2022,02/15/2022,02/14/2022,"160 W Ivyglen St, Mesa, AZ, 85201",15,0.0,Self Reported (City Staff),2022,Feb,14,2022,Feb,15,2022,Feb,14,POINT (-111.835 33.4461),33.4460784,-111.8354083
2521096,02/15/2022,02/16/2022,02/15/2022,"1969 E Covina St, Mesa, AZ, 85203",6,0.0,Self Reported (City Staff),2022,Feb,15,2022,Feb,16,2022,Feb,15,POINT (-111.789 33.4246),33.4245606,-111.7885696
2519840,02/15/2022,02/16/2022,02/15/2022,"310 S Macdonald, Mesa, AZ, 85210",2,0.0,Self Reported (City Staff),2022,Feb,15,2022,Feb,16,2022,Feb,15,POINT (-111.834 33.4081),33.4081334,-111.8342491
2520126,02/15/2022,02/16/2022,02/15/2022,"606 N Oracle, Mesa, AZ, 85203",1,0.0,Self Reported (City Staff),2022,Feb,15,2022,Feb,16,2022,Feb,15,POINT (-111.794 33.4262),33.4261792,-111.7942229
2520992,02/15/2022,02/16/2022,02/15/2022,"440 N Mesa Dr, Mesa, AZ, 85201",2,0.0,Self Reported (City Staff),2022,Feb,15,2022,Feb,16,2022,Feb,15,POINT (-111.823 33.423),33.4229952,-111.8232951
2521014,02/15/2022,02/16/2022,02/15/2022,"288 E University Dr, Mesa, AZ, 85201",1,0.0,Self Reported (City Staff),2022,Feb,15,2022,Feb,16,2022,Feb,15,POINT (-111.825 33.4224),33.4223977,-111.8246033
2519871,02/15/2022,02/16/2022,02/15/2022,"527 W Broadway Rd, Mesa, AZ, 85210",4,0.0,Self Reported (City Staff),2022,Feb,15,2022,Feb,16,2022,Feb,15,POINT (-111.843 33.4077),33.4077133,-111.8429902
2521408,02/15/2022,02/16/2022,02/16/2022,"4839 S Adelle, Mesa, AZ, 85212",2,0.1,Self Reported (City Staff),2022,Feb,15,2022,Feb,16,2022,Feb,16,POINT (-111.584 33.327),33.32697,-111.584012
2520192,02/15/2022,02/16/2022,02/15/2022,"2922 E Encanto St, Mesa, AZ, 85213",1,0.0,Mobile App (Public),2022,Feb,15,2022,Feb,16,2022,Feb,15,POINT (-111.768 33.434),33.4340435,-111.7676805
2519899,02/15/2022,02/16/2022,02/15/2022,"447 W Broadway Rd, Mesa, AZ, 85210",4,0.0,Self Reported (City Staff),2022,Feb,15,2022,Feb,16,2022,Feb,15,POINT (-111.842 33.4077),33.4077018,-111.841936
2521005,02/15/2022,02/16/2022,02/15/2022,"350 E University Dr, Mesa, AZ, 85201",1,0.0,Self Reported (City Staff),2022,Feb,15,2022,Feb,16,2022,Feb,15,POINT (-111.824 33.4227),33.4226989,-111.8240725
2520203,02/15/2022,02/16/2022,02/15/2022,"Ambassador Downs, Mesa, AZ, 85204",2,0.0,Self Reported (City Staff),2022,Feb,15,2022,Feb,16,2022,Feb,15,POINT (-111.781 33.4121),33.4120901,-111.7807973
2520666,02/15/2022,02/16/2022,02/15/2022,"911 E Main St, Mesa, AZ, 85203",2,0.0,Self Reported (City Staff),2022,Feb,15,2022,Feb,16,2022,Feb,15,POINT (-111.811 33.4149),33.4149205,-111.8110003
2521343,02/15/2022,02/16/2022,02/15/2022,"3544 E Encanto St, Mesa, AZ, 85213",15,0.0,Self Reported (City Staff),2022,Feb,15,2022,Feb,16,2022,Feb,15,POINT (-111.754 33.4337),33.4337145,-111.7536926
2519939,02/15/2022,02/16/2022,02/15/2022,"S Country Club Dr, Mesa, AZ, 85210",6,0.0,Self Reported (City Staff),2022,Feb,15,2022,Feb,16,2022,Feb,15,POINT (-111.84 33.4077),33.4077356,-111.8398525
2521190,02/15/2022,02/16/2022,02/16/2022,"N Estates Dr, Mesa, AZ, 85207",1,0.1,Phone/Email (Public),2022,Feb,15,2022,Feb,16,2022,Feb,16,POINT (-111.64 33.45),33.4500151,-111.6403049
2521252,02/15/2022,02/16/2022,02/15/2022,"1840 N Lindsay Rd, Mesa, AZ, 85213",3,0.0,Self Reported (City Staff),2022,Feb,15,2022,Feb,16,2022,Feb,15,POINT (-111.771 33.4494),33.4493668,-111.7708529
2521000,02/15/2022,02/16/2022,02/15/2022,"350 E University Dr, Mesa, AZ, 85201",2,0.0,Self Reported (City Staff),2022,Feb,15,2022,Feb,16,2022,Feb,15,POINT (-111.824 33.423),33.4229928,-111.82358
2521802,02/15/2022,02/16/2022,02/16/2022,"S Eastmark Pkwy, Mesa, AZ, 85212",2,0.1,Website (Public),2022,Feb,15,2022,Feb,16,2022,Feb,16,POINT (-111.619 33.33),33.3300218,-111.6188353
2523230,02/16/2022,02/17/2022,02/16/2022,"1835 S Extension Rd, Mesa, AZ, 85210",3,0.0,Self Reported (City Staff),2022,Feb,16,2022,Feb,17,2022,Feb,16,POINT (-111.848 33.3816),33.3815616,-111.8477473
2522100,02/16/2022,02/17/2022,02/16/2022,"1619 E Main St, Mesa, AZ, 85203",1,0.0,Mobile App (Public),2022,Feb,16,2022,Feb,17,2022,Feb,16,POINT (-111.796 33.4141),33.414096,-111.796032
2522010,02/16/2022,02/17/2022,02/16/2022,"702 W 1st St, Mesa, AZ, 85201",20,0.0,Mobile App (Public),2022,Feb,16,2022,Feb,17,2022,Feb,16,POINT (-111.846 33.4176),33.4176473,-111.8462454
2523437,02/16/2022,02/17/2022,02/16/2022,"744 N Center St, Mesa, AZ, 85201",2,0.0,Self Reported (City Staff),2022,Feb,16,2022,Feb,17,2022,Feb,16,POINT (-111.831 33.429),33.4290312,-111.8314637
2523265,02/16/2022,02/17/2022,02/16/2022,"1515 S Extension Rd, Mesa, AZ, 85210",1,0.0,Self Reported (City Staff),2022,Feb,16,2022,Feb,17,2022,Feb,16,POINT (-111.849 33.3874),33.3874384,-111.8487633
2522710,02/16/2022,02/17/2022,02/16/2022,"1662 E 1st Ave, Mesa, AZ, 85204",2,0.0,Self Reported (City Staff),2022,Feb,16,2022,Feb,17,2022,Feb,16,POINT (-111.795 33.4134),33.413412,-111.7945996
2522014,02/16/2022,02/17/2022,02/16/2022,"E McKellips Rd, Mesa, AZ, 85207",2,0.0,Self Reported (City Staff),2022,Feb,16,2022,Feb,17,2022,Feb,16,POINT (-111.639 33.4516),33.451561,-111.6391903
2523603,02/16/2022,02/17/2022,02/16/2022,"2662 N Mesa Dr, Mesa, AZ, 85201",1,0.0,Self Reported (City Staff),2022,Feb,16,2022,Feb,17,2022,Feb,16,POINT (-111.823 33.4644),33.4643857,-111.822828
2523299,02/16/2022,02/17/2022,02/16/2022,"808 W Isabella Ave, Mesa, AZ, 85210",1,0.0,Self Reported (City Staff),2022,Feb,16,2022,Feb,17,2022,Feb,16,POINT (-111.849 33.3836),33.3835683,-111.8488107
2522017,02/16/2022,02/17/2022,02/16/2022,"E McKellips Rd, Mesa, AZ, 85207",2,0.0,Self Reported (City Staff),2022,Feb,16,2022,Feb,17,2022,Feb,16,POINT (-111.639 33.4516),33.4515858,-111.6391802
2522685,02/16/2022,02/17/2022,02/16/2022,"1613 E Main St, Mesa, AZ, 85203",3,0.0,Self Reported (City Staff),2022,Feb,16,2022,Feb,17,2022,Feb,16,POINT (-111.796 33.4151),33.4151094,-111.7962048
2523909,02/16/2022,02/17/2022,02/17/2022,0,8,0.2,Phone/Email (Public),2022,Feb,16,2022,Feb,17,2022,Feb,17,POINT (-111.88 33.3719),33.3718901,-111.8803799
2522019,02/16/2022,02/17/2022,02/16/2022,"E McKellips Rd, Mesa, AZ, 85207",1,0.0,Self Reported (City Staff),2022,Feb,16,2022,Feb,17,2022,Feb,16,POINT (-111.639 33.4517),33.451671,-111.6391697
2523359,02/16/2022,02/17/2022,02/16/2022,"61 N Country Club Dr, Mesa, AZ, 85201",1,0.0,Self Reported (City Staff),2022,Feb,16,2022,Feb,17,2022,Feb,16,POINT (-111.84 33.4168),33.4167594,-111.8398149
2522683,02/16/2022,02/17/2022,02/16/2022,"1613 E Main St, Mesa, AZ, 85203",1,0.0,Self Reported (City Staff),2022,Feb,16,2022,Feb,17,2022,Feb,16,POINT (-111.796 33.4151),33.4150971,-111.7961517
2525807,02/17/2022,02/22/2022,02/22/2022,"1515 N Bel Air Dr, Mesa, AZ, 85201",12,0.2,Phone/Email (Public),2022,Feb,17,2022,Feb,22,2022,Feb,22,POINT (-111.843 33.4428),33.442784,-111.842665
2524608,02/17/2022,02/22/2022,02/17/2022,"S Crismon Rd, Mesa, AZ, 85212",32,0.0,Self Reported (City Staff),2022,Feb,17,2022,Feb,22,2022,Feb,17,POINT (-111.619 33.3578),33.3578493,-111.6185997
2524979,02/17/2022,02/22/2022,02/17/2022,"S Crismon Rd, Mesa, AZ, 85212",65,0.0,Self Reported (City Staff),2022,Feb,17,2022,Feb,22,2022,Feb,17,POINT (-111.619 33.3579),33.3578567,-111.6190604
2525596,02/17/2022,02/22/2022,02/17/2022,"1242 W Southern Ave, Mesa, AZ, 85202",8,0.0,Self Reported (City Staff),2022,Feb,17,2022,Feb,22,2022,Feb,17,POINT (-111.859 33.3945),33.3945418,-111.8588263
2525084,02/17/2022,02/22/2022,02/17/2022,0,70,0.0,Website (Public),2022,Feb,17,2022,Feb,22,2022,Feb,17,POINT (-111.819 33.4328),33.432771,-111.8188503
2524327,02/17/2022,02/22/2022,02/17/2022,"2985 S Hawes Rd, Mesa, AZ, 85212",12,0.0,Mobile App (Public),2022,Feb,17,2022,Feb,22,2022,Feb,17,POINT (-111.653 33.3611),33.3611163,-111.6533148
2524814,02/17/2022,02/22/2022,02/17/2022,"E Oro Ave, Mesa, AZ, 85212",12,0.0,Self Reported (City Staff),2022,Feb,17,2022,Feb,22,2022,Feb,17,POINT (-111.653 33.362),33.3620327,-111.653125
2528242,02/19/2022,02/22/2022,02/22/2022,"2964 S 82nd St, Mesa, AZ, 85212",8,0.1,Mobile App (Public),2022,Feb,19,2022,Feb,22,2022,Feb,22,POINT (-111.658 33.3613),33.3613115,-111.6575251
2528392,02/19/2022,02/22/2022,02/22/2022,"441 E Kimball Ave, Mesa, AZ, 85204",60,0.2,Mobile App (Public),2022,Feb,19,2022,Feb,22,2022,Feb,22,POINT (-111.822 33.4115),33.4115201,-111.821557
2528394,02/19/2022,02/22/2022,02/22/2022,"1960 E Main St, Mesa, AZ, 85203",6,0.1,Mobile App (Public),2022,Feb,19,2022,Feb,22,2022,Feb,22,POINT (-111.788 33.4159),33.4159472,-111.7884177
2529646,02/21/2022,02/22/2022,02/22/2022,"Moorings at Mesa Cove, Mesa, AZ, 85203",5,0.2,Mobile App (Public),2022,Feb,21,2022,Feb,22,2022,Feb,22,POINT (-111.821 33.437),33.4369848,-111.8206028
2529231,02/21/2022,02/22/2022,02/22/2022,"9749 E Naranja Ave, Mesa, AZ, 85209",6,0.1,Website (Public),2022,Feb,21,2022,Feb,22,2022,Feb,22,POINT (-111.624 33.365),33.3649974,-111.6236687
2530742,02/21/2022,02/22/2022,02/22/2022,"664 E 6th St, Mesa, AZ, 85203",8,0.2,Website (Public),2022,Feb,21,2022,Feb,22,2022,Feb,22,POINT (-111.816 33.4263),33.4262659,-111.8163666
2529608,02/21/2022,02/22/2022,02/22/2022,"Moorings at Mesa Cove, Mesa, AZ, 85203",8,0.2,Mobile App (Public),2022,Feb,21,2022,Feb,22,2022,Feb,22,POINT (-111.817 33.4371),33.4370525,-111.817152
2530810,02/21/2022,02/22/2022,02/22/2022,"803 E 6th St, Mesa, AZ, 85203",10,0.2,Mobile App (Public),2022,Feb,21,2022,Feb,22,2022,Feb,22,POINT (-111.814 33.426),33.4259954,-111.8139318
2532889,02/22/2022,02/23/2022,02/22/2022,"906 S Spur, Mesa, AZ, 85204",50,0.0,Self Reported (City Staff),2022,Feb,22,2022,Feb,23,2022,Feb,22,POINT (-111.801 33.3984),33.3984166,-111.8008723
2531355,02/22/2022,02/23/2022,02/22/2022,"310 S Macdonald, Mesa, AZ, 85210",60,0.0,Phone/Email (Public),2022,Feb,22,2022,Feb,23,2022,Feb,22,POINT (-111.834 33.4083),33.408272,-111.83448
2532215,02/22/2022,02/23/2022,02/22/2022,"1012 N Horne, Mesa, AZ, 85203",90,0.0,Self Reported (City Staff),2022,Feb,22,2022,Feb,23,2022,Feb,22,POINT (-111.815 33.4337),33.4336853,-111.8147194
2532944,02/22/2022,02/23/2022,02/22/2022,"649 S Lazona Dr-Alley, Mesa, AZ, 85204",6,0.0,Self Reported (City Staff),2022,Feb,22,2022,Feb,23,2022,Feb,22,POINT (-111.801 33.3986),33.3985621,-111.8010943
2533246,02/22/2022,02/23/2022,02/23/2022,"3940 E Broadway Rd, Mesa, AZ, 85206",6,0.1,Phone/Email (Public),2022,Feb,22,2022,Feb,23,2022,Feb,23,POINT (-111.748 33.4083),33.40827,-111.7482199
2532890,02/22/2022,02/23/2022,02/22/2022,"634 S Lazona Dr-Alley, Mesa, AZ, 85204",60,0.0,Self Reported (City Staff),2022,Feb,22,2022,Feb,23,2022,Feb,22,POINT (-111.801 33.398),33.39803,-111.8011337
2532128,02/22/2022,02/23/2022,02/22/2022,"798 S Lazona Dr, Mesa, AZ, 85204",140,0.0,Phone/Email (Public),2022,Feb,22,2022,Feb,23,2022,Feb,22,POINT (-111.802 33.4007),33.40067,-111.8015299
2531515,02/22/2022,02/23/2022,02/22/2022,"1928 E Main St, Mesa, AZ, 85203",6,0.0,Self Reported (City Staff),2022,Feb,22,2022,Feb,23,2022,Feb,22,POINT (-111.789 33.4161),33.4160901,-111.7890305
2531236,02/22/2022,02/23/2022,02/22/2022,"1198 E Brown Rd, Mesa, AZ, 85203",50,0.0,Phone/Email (Public),2022,Feb,22,2022,Feb,23,2022,Feb,22,POINT (-111.805 33.437),33.4370301,-111.8052799
